{
  "type" : "FeatureCollection",
  "features" : [{"type":"Feature","id":1,"geometry":{"type":"Point","coordinates":[35.117754565115717,32.45005651580442]},"properties":{"OBJECTID_1":1,"Name":"Barta'a (Reihan)","In which governorate?":1,"Checkpoint type":1,"Operated by":3,"hide_h2":null}},{"type":"Feature","id":2,"geometry":{"type":"Point","coordinates":[34.998903999826815,32.184924000380768]},"properties":{"OBJECTID_1":2,"Name":"Jaljoulia","In which governorate?":20,"Checkpoint type":null,"Operated by":null,"hide_h2":null}},{"type":"Feature","id":3,"geometry":{"type":"Point","coordinates":[35.257244645671911,32.115361166562728]},"properties":{"OBJECTID_1":3,"Name":"Za'tara (Tappuah)","In which governorate?":25,"Checkpoint type":2,"Operated by":2,"hide_h2":null}},{"type":"Feature","id":4,"geometry":{"type":"Point","coordinates":[35.006929000458882,32.107725000145741]},"properties":{"OBJECTID_1":4,"Name":"Kafr Kasem","In which governorate?":25,"Checkpoint type":1,"Operated by":4,"hide_h2":null}},{"type":"Feature","id":5,"geometry":{"type":"Point","coordinates":[35.03865430429569,32.280355817207429]},"properties":{"OBJECTID_1":5,"Name":"Kafriat- main road 557","In which governorate?":10,"Checkpoint type":4,"Operated by":2,"hide_h2":null}},{"type":"Feature","id":6,"geometry":{"type":"Point","coordinates":[35.18004733518373,32.432577212356286]},"properties":{"OBJECTID_1":6,"Name":"Ya'bad (Mevo Dotan)","In which governorate?":1,"Checkpoint type":2,"Operated by":2,"hide_h2":null}},{"type":"Feature","id":7,"geometry":{"type":"Point","coordinates":[35.016458489155632,32.290450417573069]},"properties":{"OBJECTID_1":7,"Name":"Irtah (Ephraim)","In which governorate?":10,"Checkpoint type":1,"Operated by":2,"hide_h2":null}},{"type":"Feature","id":8,"geometry":{"type":"Point","coordinates":[35.015389000499908,32.313216000333547]},"properties":{"OBJECTID_1":8,"Name":"Tulkarm Factories","In which governorate?":10,"Checkpoint type":4,"Operated by":2,"hide_h2":null}},{"type":"Feature","id":9,"geometry":{"type":"Point","coordinates":[35.162350000215014,32.468800000359884]},"properties":{"OBJECTID_1":9,"Name":"Tura","In which governorate?":1,"Checkpoint type":1,"Operated by":2,"hide_h2":null}},{"type":"Feature","id":10,"geometry":{"type":"Point","coordinates":[35.055191000167895,32.411265999540234]},"properties":{"OBJECTID_1":10,"Name":"Nazlat 'Isa South","In which governorate?":10,"Checkpoint type":1,"Operated by":2,"hide_h2":null}},{"type":"Feature","id":11,"geometry":{"type":"Point","coordinates":[34.999457000288267,32.192938999962792]},"properties":{"OBJECTID_1":11,"Name":"Zufin","In which governorate?":20,"Checkpoint type":1,"Operated by":2,"hide_h2":null}},{"type":"Feature","id":12,"geometry":{"type":"Point","coordinates":[35.272330991956082,32.17648169905749]},"properties":{"OBJECTID_1":12,"Name":"huwara  jurzeem mountain","In which governorate?":15,"Checkpoint type":2,"Operated by":2,"hide_h2":null}},{"type":"Feature","id":13,"geometry":{"type":"Point","coordinates":[35.040176311879954,32.281575594932491]},"properties":{"OBJECTID_1":13,"Name":"Kafriat","In which governorate?":10,"Checkpoint type":4,"Operated by":2,"hide_h2":null}},{"type":"Feature","id":14,"geometry":{"type":"Point","coordinates":[35.317732000517772,32.199780000103388]},"properties":{"OBJECTID_1":14,"Name":"Beit Furik","In which governorate?":15,"Checkpoint type":2,"Operated by":2,"hide_h2":null}},{"type":"Feature","id":15,"geometry":{"type":"Point","coordinates":[35.260563000306547,31.748228000152398]},"properties":{"OBJECTID_1":15,"Name":"As Sawahira ash Sharqiya","In which governorate?":40,"Checkpoint type":1,"Operated by":2,"hide_h2":null}},{"type":"Feature","id":16,"geometry":{"type":"Point","coordinates":[35.17708200016969,31.882621000397528]},"properties":{"OBJECTID_1":16,"Name":"Beituniya","In which governorate?":30,"Checkpoint type":3,"Operated by":2,"hide_h2":null}},{"type":"Feature","id":17,"geometry":{"type":"Point","coordinates":[35.289561000188804,31.742843000209291]},"properties":{"OBJECTID_1":17,"Name":"Wadi Nar","In which governorate?":40,"Checkpoint type":2,"Operated by":2,"hide_h2":null}},{"type":"Feature","id":18,"geometry":{"type":"Point","coordinates":[35.251855000039825,31.827834000207233]},"properties":{"OBJECTID_1":18,"Name":"Hizma checkpoint","In which governorate?":40,"Checkpoint type":1,"Operated by":1,"hide_h2":null}},{"type":"Feature","id":19,"geometry":{"type":"Point","coordinates":[35.042403247183117,31.897627604946049]},"properties":{"OBJECTID_1":19,"Name":"Maccabim","In which governorate?":30,"Checkpoint type":1,"Operated by":2,"hide_h2":null}},{"type":"Feature","id":20,"geometry":{"type":"Point","coordinates":[35.033101402376808,31.94102786691704]},"properties":{"OBJECTID_1":20,"Name":"Ni'lin Rd 446","In which governorate?":30,"Checkpoint type":1,"Operated by":2,"hide_h2":null}},{"type":"Feature","id":21,"geometry":{"type":"Point","coordinates":[35.227539000192969,31.862393999542864]},"properties":{"OBJECTID_1":21,"Name":"Qalandiya","In which governorate?":40,"Checkpoint type":1,"Operated by":2,"hide_h2":null}},{"type":"Feature","id":22,"geometry":{"type":"Point","coordinates":[35.259337960253411,31.780891171076533]},"properties":{"OBJECTID_1":22,"Name":"Zaytoun","In which governorate?":40,"Checkpoint type":1,"Operated by":1,"hide_h2":null}},{"type":"Feature","id":23,"geometry":{"type":"Point","coordinates":[35.243006000242978,31.809549000078132]},"properties":{"OBJECTID_1":23,"Name":"Shu'fat Camp CP","In which governorate?":40,"Checkpoint type":1,"Operated by":1,"hide_h2":null}},{"type":"Feature","id":24,"geometry":{"type":"Point","coordinates":[35.263735685838725,31.783394733875092]},"properties":{"OBJECTID_1":24,"Name":"Az Za'ayyem CP","In which governorate?":40,"Checkpoint type":1,"Operated by":1,"hide_h2":null}},{"type":"Feature","id":25,"geometry":{"type":"Point","coordinates":[35.006816000063182,32.040110000028172]},"properties":{"OBJECTID_1":25,"Name":"Rantis","In which governorate?":30,"Checkpoint type":1,"Operated by":2,"hide_h2":null}},{"type":"Feature","id":26,"geometry":{"type":"Point","coordinates":[35.251454999891621,31.739356000268728]},"properties":{"OBJECTID_1":26,"Name":"Ash Sheikh Sa'd","In which governorate?":40,"Checkpoint type":1,"Operated by":1,"hide_h2":null}},{"type":"Feature","id":27,"geometry":{"type":"Point","coordinates":[35.17604399981682,31.857087999935477]},"properties":{"OBJECTID_1":27,"Name":"Al Jib","In which governorate?":40,"Checkpoint type":1,"Operated by":1,"hide_h2":null}},{"type":"Feature","id":28,"geometry":{"type":"Point","coordinates":[35.159580000690752,31.831470999811707]},"properties":{"OBJECTID_1":28,"Name":"Beit Iksa CP","In which governorate?":40,"Checkpoint type":2,"Operated by":2,"hide_h2":null}},{"type":"Feature","id":29,"geometry":{"type":"Point","coordinates":[35.032572000502341,31.941370999951808]},"properties":{"OBJECTID_1":29,"Name":"Ni'lin Workers","In which governorate?":30,"Checkpoint type":1,"Operated by":2,"hide_h2":null}},{"type":"Feature","id":30,"geometry":{"type":"Point","coordinates":[35.043690000096881,31.896704000439041]},"properties":{"OBJECTID_1":30,"Name":"Beit Sira","In which governorate?":30,"Checkpoint type":2,"Operated by":2,"hide_h2":null}},{"type":"Feature","id":31,"geometry":{"type":"Point","coordinates":[35.104168999748147,31.886354999579776]},"properties":{"OBJECTID_1":31,"Name":"Beit 'Ur Al Fauqa","In which governorate?":30,"Checkpoint type":2,"Operated by":2,"hide_h2":null}},{"type":"Feature","id":32,"geometry":{"type":"Point","coordinates":[35.171425999984436,31.872664000488221]},"properties":{"OBJECTID_1":32,"Name":"Ofer","In which governorate?":30,"Checkpoint type":2,"Operated by":2,"hide_h2":null}},{"type":"Feature","id":33,"geometry":{"type":"Point","coordinates":[35.120806545682392,31.715516210549822]},"properties":{"OBJECTID_1":33,"Name":"Wadi Fukin CP","In which governorate?":45,"Checkpoint type":2,"Operated by":2,"hide_h2":null}},{"type":"Feature","id":34,"geometry":{"type":"Point","coordinates":[35.054661999672888,31.670711999863158]},"properties":{"OBJECTID_1":34,"Name":"Al Jab'a Checkpoint","In which governorate?":45,"Checkpoint type":1,"Operated by":3,"hide_h2":null}},{"type":"Feature","id":35,"geometry":{"type":"Point","coordinates":[35.168523999912765,31.705561999870106]},"properties":{"OBJECTID_1":35,"Name":"Tunnels Checkpoint","In which governorate?":45,"Checkpoint type":2,"Operated by":2,"hide_h2":null}},{"type":"Feature","id":36,"geometry":{"type":"Point","coordinates":[35.205071000226596,31.723827000005425]},"properties":{"OBJECTID_1":36,"Name":"Gilo CP (300)","In which governorate?":45,"Checkpoint type":1,"Operated by":1,"hide_h2":null}},{"type":"Feature","id":37,"geometry":{"type":"Point","coordinates":[35.40752700070076,31.580887999767157]},"properties":{"OBJECTID_1":37,"Name":"Ein Gedi CP","In which governorate?":45,"Checkpoint type":6,"Operated by":2,"hide_h2":null}},{"type":"Feature","id":38,"geometry":{"type":"Point","coordinates":[35.168484144499317,31.681371944561317]},"properties":{"OBJECTID_1":38,"Name":"Efrat Checkpoint","In which governorate?":45,"Checkpoint type":6,"Operated by":2,"hide_h2":null}},{"type":"Feature","id":39,"geometry":{"type":"Point","coordinates":[35.246752769820752,31.715469620109676]},"properties":{"OBJECTID_1":39,"Name":"An Nu'man CP","In which governorate?":45,"Checkpoint type":1,"Operated by":2,"hide_h2":null}},{"type":"Feature","id":40,"geometry":{"type":"Point","coordinates":[34.963464638055193,31.59125736641252]},"properties":{"OBJECTID_1":40,"Name":"Tarqumiya Checkpoint","In which governorate?":50,"Checkpoint type":1,"Operated by":3,"hide_h2":null}},{"type":"Feature","id":41,"geometry":{"type":"Point","coordinates":[35.112442701522859,31.372425317164453]},"properties":{"OBJECTID_1":41,"Name":"Beit Yatir CP","In which governorate?":50,"Checkpoint type":1,"Operated by":3,"hide_h2":null}},{"type":"Feature","id":42,"geometry":{"type":"Point","coordinates":[35.272866474881852,32.176150855358756]},"properties":{"OBJECTID_1":42,"Name":"Huwwara Awarta ","In which governorate?":15,"Checkpoint type":2,"Operated by":2,"hide_h2":null}},{"type":"Feature","id":43,"geometry":{"type":"Point","coordinates":[35.13136929115138,32.00993005809687]},"properties":{"OBJECTID_1":43,"Name":"Hallamish Road 450 Checkpoint","In which governorate?":30,"Checkpoint type":2,"Operated by":2,"hide_h2":null}},{"type":"Feature","id":44,"geometry":{"type":"Point","coordinates":[35.122533346979772,31.999954673165757]},"properties":{"OBJECTID_1":44,"Name":"Deir Nidham-Road 450 CP","In which governorate?":30,"Checkpoint type":2,"Operated by":2,"hide_h2":null}},{"type":"Feature","id":45,"geometry":{"type":"Point","coordinates":[35.067000000539991,32.280000000042158]},"properties":{"OBJECTID_1":45,"Name":"Shufa","In which governorate?":10,"Checkpoint type":2,"Operated by":2,"hide_h2":null}},{"type":"Feature","id":46,"geometry":{"type":"Point","coordinates":[35.259170968012235,31.798685548208461]},"properties":{"OBJECTID_1":46,"Name":"Anata south checkpoint ","In which governorate?":40,"Checkpoint type":1,"Operated by":3,"hide_h2":null}},{"type":"Feature","id":47,"geometry":{"type":"Point","coordinates":[35.10977109307553,31.52444604860391]},"properties":{"OBJECTID_1":47,"Name":"Al Ibrahimi Mosque Entrance.1 ","In which governorate?":50,"Checkpoint type":2,"Operated by":1,"hide_h2":1}},{"type":"Feature","id":48,"geometry":{"type":"Point","coordinates":[35.109497258663687,31.524728037566959]},"properties":{"OBJECTID_1":48,"Name":"Soup Kitchen CP","In which governorate?":50,"Checkpoint type":2,"Operated by":1,"hide_h2":1}},{"type":"Feature","id":49,"geometry":{"type":"Point","coordinates":[35.105689177255769,31.525868972418571]},"properties":{"OBJECTID_1":49,"Name":"Bab Al Baladeyeh CP","In which governorate?":50,"Checkpoint type":2,"Operated by":2,"hide_h2":1}},{"type":"Feature","id":50,"geometry":{"type":"Point","coordinates":[35.109731523384937,31.532640851512422]},"properties":{"OBJECTID_1":50,"Name":"Givat Ha’avout CP","In which governorate?":50,"Checkpoint type":2,"Operated by":2,"hide_h2":1}},{"type":"Feature","id":51,"geometry":{"type":"Point","coordinates":[35.112988196931852,31.526493623915684]},"properties":{"OBJECTID_1":51,"Name":"Rajabi Building CP","In which governorate?":50,"Checkpoint type":2,"Operated by":2,"hide_h2":1}},{"type":"Feature","id":52,"geometry":{"type":"Point","coordinates":[35.1101590076915,31.525820957779136]},"properties":{"OBJECTID_1":52,"Name":"Northern Entrance to Al Ibrahimi Mosque CP","In which governorate?":50,"Checkpoint type":2,"Operated by":1,"hide_h2":1}},{"type":"Feature","id":53,"geometry":{"type":"Point","coordinates":[35.124252598949759,31.526938375236131]},"properties":{"OBJECTID_1":53,"Name":"Jabal Jouhr CP - Near Kiryart Arab’a ","In which governorate?":50,"Checkpoint type":2,"Operated by":2,"hide_h2":null}},{"type":"Feature","id":54,"geometry":{"type":"Point","coordinates":[35.114088890712402,31.523549493213562]},"properties":{"OBJECTID_1":54,"Name":"Ziyad Jaber CP","In which governorate?":50,"Checkpoint type":2,"Operated by":2,"hide_h2":1}},{"type":"Feature","id":55,"geometry":{"type":"Point","coordinates":[35.111670324565026,31.521555237250038]},"properties":{"OBJECTID_1":55,"Name":"Al Salaymeh (CP 160)","In which governorate?":50,"Checkpoint type":2,"Operated by":2,"hide_h2":1}},{"type":"Feature","id":56,"geometry":{"type":"Point","coordinates":[35.110448145413038,31.521522112960184]},"properties":{"OBJECTID_1":56,"Name":"Abu Rish CP","In which governorate?":50,"Checkpoint type":2,"Operated by":1,"hide_h2":1}},{"type":"Feature","id":57,"geometry":{"type":"Point","coordinates":[35.101588706693633,31.526945628414069]},"properties":{"OBJECTID_1":57,"Name":"Al Shuhada Street CP (CP 56)","In which governorate?":50,"Checkpoint type":2,"Operated by":2,"hide_h2":1}},{"type":"Feature","id":58,"geometry":{"type":"Point","coordinates":[35.097881217724733,31.52475766608331]},"properties":{"OBJECTID_1":58,"Name":"Qafisha Building CP","In which governorate?":50,"Checkpoint type":2,"Operated by":2,"hide_h2":1}},{"type":"Feature","id":59,"geometry":{"type":"Point","coordinates":[35.11236270478706,31.532559629427652]},"properties":{"OBJECTID_1":59,"Name":"Wadi Al Ghrous CP","In which governorate?":50,"Checkpoint type":5,"Operated by":2,"hide_h2":1}},{"type":"Feature","id":60,"geometry":{"type":"Point","coordinates":[35.109777787450192,31.524446965492864]},"properties":{"OBJECTID_1":60,"Name":"Al Ibrahimi Mosque Entrance.2","In which governorate?":50,"Checkpoint type":5,"Operated by":1,"hide_h2":1}},{"type":"Feature","id":61,"geometry":{"type":"Point","coordinates":[35.111061736024865,31.523002108738908]},"properties":{"OBJECTID_1":61,"Name":"Bakery CP","In which governorate?":50,"Checkpoint type":5,"Operated by":1,"hide_h2":1}},{"type":"Feature","id":62,"geometry":{"type":"Point","coordinates":[35.109320628226548,31.52355975003502]},"properties":{"OBJECTID_1":62,"Name":"Zatari Building CP","In which governorate?":50,"Checkpoint type":5,"Operated by":2,"hide_h2":1}},{"type":"Feature","id":63,"geometry":{"type":"Point","coordinates":[35.110207101040807,31.523948072485013]},"properties":{"OBJECTID_1":63,"Name":"Abed CP","In which governorate?":50,"Checkpoint type":5,"Operated by":1,"hide_h2":1}},{"type":"Feature","id":64,"geometry":{"type":"Point","coordinates":[35.110491070617165,31.52296453069016]},"properties":{"OBJECTID_1":64,"Name":"Al Fayha’a School CP","In which governorate?":50,"Checkpoint type":5,"Operated by":1,"hide_h2":1}},{"type":"Feature","id":65,"geometry":{"type":"Point","coordinates":[35.111307110832946,31.524320082909185]},"properties":{"OBJECTID_1":65,"Name":"Al Saraya KG CP.1","In which governorate?":50,"Checkpoint type":5,"Operated by":1,"hide_h2":1}},{"type":"Feature","id":66,"geometry":{"type":"Point","coordinates":[35.111612005663225,31.524215614286259]},"properties":{"OBJECTID_1":66,"Name":"Al Saraya KG CP.2","In which governorate?":50,"Checkpoint type":5,"Operated by":1,"hide_h2":1}},{"type":"Feature","id":67,"geometry":{"type":"Point","coordinates":[35.108412825873302,31.522878533404082]},"properties":{"OBJECTID_1":67,"Name":"Al Sultan Pool CP","In which governorate?":50,"Checkpoint type":5,"Operated by":2,"hide_h2":1}},{"type":"Feature","id":68,"geometry":{"type":"Point","coordinates":[35.108563554529937,31.523572357171442]},"properties":{"OBJECTID_1":68,"Name":"Al Sahleh CP","In which governorate?":50,"Checkpoint type":5,"Operated by":2,"hide_h2":1}},{"type":"Feature","id":69,"geometry":{"type":"Point","coordinates":[35.104147269228775,31.526065163312332]},"properties":{"OBJECTID_1":69,"Name":"Quordoba School CP","In which governorate?":50,"Checkpoint type":5,"Operated by":2,"hide_h2":1}},{"type":"Feature","id":70,"geometry":{"type":"Point","coordinates":[35.10651268880639,31.523155104454947]},"properties":{"OBJECTID_1":70,"Name":"Al Karantina CP","In which governorate?":50,"Checkpoint type":5,"Operated by":2,"hide_h2":1}},{"type":"Feature","id":71,"geometry":{"type":"Point","coordinates":[35.10159404348812,31.52537734596158]},"properties":{"OBJECTID_1":71,"Name":"Tal Rumeida Settelment CP","In which governorate?":50,"Checkpoint type":5,"Operated by":2,"hide_h2":1}},{"type":"Feature","id":72,"geometry":{"type":"Point","coordinates":[35.11073363313961,31.523983458671832]},"properties":{"OBJECTID_1":72,"Name":"Al Ibrahimi Mosque (Jewish Entrance) CP","In which governorate?":50,"Checkpoint type":5,"Operated by":1,"hide_h2":1}},{"type":"Feature","id":73,"geometry":{"type":"Point","coordinates":[35.147237670373258,31.365116427155062]},"properties":{"OBJECTID_1":73,"Name":"Jinba CP","In which governorate?":50,"Checkpoint type":2,"Operated by":2,"hide_h2":null}},{"type":"Feature","id":74,"geometry":{"type":"Point","coordinates":[35.113382000378742,31.523990000414788]},"properties":{"OBJECTID_1":74,"Name":"Al Salaymeh neighborhood Northern Entrance","In which governorate?":50,"Checkpoint type":5,"Operated by":2,"hide_h2":1}},{"type":"Feature","id":75,"geometry":{"type":"Point","coordinates":[35.101139999804026,31.525820000061643]},"properties":{"OBJECTID_1":75,"Name":"Abu Shamsyeh CP","In which governorate?":50,"Checkpoint type":5,"Operated by":2,"hide_h2":1}},{"type":"Feature","id":76,"geometry":{"type":"Point","coordinates":[35.100550000553646,31.524670000563901]},"properties":{"OBJECTID_1":76,"Name":"Mashhad Al Arba’in CP","In which governorate?":50,"Checkpoint type":5,"Operated by":2,"hide_h2":1}},{"type":"Feature","id":77,"geometry":{"type":"Point","coordinates":[35.188038300805637,32.264494483986034]},"properties":{"OBJECTID_1":77,"Name":"Shavei Shomron","In which governorate?":15,"Checkpoint type":null,"Operated by":null,"hide_h2":null}}]
}