{
  "type" : "FeatureCollection",
  "features" : [{"type":"Feature","id":1,"geometry":{"type":"Point","coordinates":[35.043359801070281,32.280065287483552]},"properties":{"OBJECTID_1":1,"Name":"Izbat Shufa North","District":"Tulkarm","Type":"earthmound"}},{"type":"Feature","id":2,"geometry":{"type":"Point","coordinates":[35.450638999304992,32.209167000232199]},"properties":{"OBJECTID_1":2,"Name":"North Hamra Earthmound 1","District":"Nablus","Type":"earthmound"}},{"type":"Feature","id":3,"geometry":{"type":"Point","coordinates":[35.343624873037037,32.102581757076535]},"properties":{"OBJECTID_1":3,"Name":"Aqraba original entrance 505","District":"Nablus","Type":"earthmound"}},{"type":"Feature","id":4,"geometry":{"type":"Point","coordinates":[35.246294791282473,32.177050464048953]},"properties":{"OBJECTID_1":4,"Name":"Burin 3 roadblock","District":"Nablus","Type":"road block"}},{"type":"Feature","id":5,"geometry":{"type":"Point","coordinates":[35.227595779356442,32.005165698029835]},"properties":{"OBJECTID_1":5,"Name":"Jiljiliya Road 465 Earthmound 2","District":"Ramallah","Type":"earthmound"}},{"type":"Feature","id":6,"geometry":{"type":"Point","coordinates":[35.053829660600989,31.986510617234106]},"properties":{"OBJECTID_1":6,"Name":"Shuqba Earthmound 1","District":"Ramallah","Type":"earthmound"}},{"type":"Feature","id":7,"geometry":{"type":"Point","coordinates":[35.060882932716908,32.02821408694188]},"properties":{"OBJECTID_1":7,"Name":"Abud Roadblock","District":"Ramallah","Type":"road block"}},{"type":"Feature","id":8,"geometry":{"type":"Point","coordinates":[35.255342442790187,31.945509430655957]},"properties":{"OBJECTID_1":8,"Name":"Ein Yabrud Road 60 Earthmound 8","District":"Ramallah","Type":"earthmound"}},{"type":"Feature","id":9,"geometry":{"type":"Point","coordinates":[35.045186734818664,31.995007142385223]},"properties":{"OBJECTID_1":9,"Name":"Shuqba Earthmound 3","District":"Ramallah","Type":"earthmound"}},{"type":"Feature","id":10,"geometry":{"type":"Point","coordinates":[35.449028999540239,32.206522000060318]},"properties":{"OBJECTID_1":10,"Name":"Hamra","District":"Nablus","Type":"partial checkpoint"}},{"type":"Feature","id":11,"geometry":{"type":"Point","coordinates":[35.247601000697337,32.096754000208286]},"properties":{"OBJECTID_1":11,"Name":"Road 60 Yatma culvert","District":"Nablus","Type":"road block"}},{"type":"Feature","id":12,"geometry":{"type":"Point","coordinates":[35.436545658046576,32.328805999282743]},"properties":{"OBJECTID_1":12,"Name":"Tayasir","District":"Tubas","Type":"partial checkpoint"}},{"type":"Feature","id":13,"geometry":{"type":"Point","coordinates":[35.268372999503754,32.193941999920916]},"properties":{"OBJECTID_1":13,"Name":"Bracha - Samaritan road","District":"Nablus","Type":"partial checkpoint"}},{"type":"Feature","id":14,"geometry":{"type":"Point","coordinates":[35.261756913902097,32.163707588574368]},"properties":{"OBJECTID_1":14,"Name":"Yitzhar-Jit","District":"Nablus","Type":"partial checkpoint"}},{"type":"Feature","id":15,"geometry":{"type":"Point","coordinates":[35.040464999618315,32.063920000339621]},"properties":{"OBJECTID_1":15,"Name":"Deir Ballut","District":"Salfit","Type":"partial checkpoint"}},{"type":"Feature","id":16,"geometry":{"type":"Point","coordinates":[35.135781000368887,32.290193999979003]},"properties":{"OBJECTID_1":16,"Name":"Enav CP","District":"Tulkarm","Type":"partial checkpoint"}},{"type":"Feature","id":17,"geometry":{"type":"Point","coordinates":[35.177719923294774,32.215911101038806]},"properties":{"OBJECTID_1":17,"Name":"Sarra - Jit","District":"Qalqiliya","Type":"partial checkpoint"}},{"type":"Feature","id":18,"geometry":{"type":"Point","coordinates":[35.273422000515623,32.177657000038629]},"properties":{"OBJECTID_1":18,"Name":"Huwwara","District":"Nablus","Type":"partial checkpoint"}},{"type":"Feature","id":19,"geometry":{"type":"Point","coordinates":[35.379430000553626,32.089179999881033]},"properties":{"OBJECTID_1":19,"Name":"Ma'ale Efrayim","District":"Nablus","Type":"partial checkpoint"}},{"type":"Feature","id":20,"geometry":{"type":"Point","coordinates":[35.082840525368631,32.272155676174741]},"properties":{"OBJECTID_1":20,"Name":"Agricultural road leads to 557","District":"Tulkarm","Type":"road block"}},{"type":"Feature","id":21,"geometry":{"type":"Point","coordinates":[35.334163571167103,32.217867459311144]},"properties":{"OBJECTID_1":21,"Name":"557 Salim","District":"Nablus","Type":"earthmound"}},{"type":"Feature","id":22,"geometry":{"type":"Point","coordinates":[35.343335187014702,32.206729114439568]},"properties":{"OBJECTID_1":22,"Name":"557 Salim 2","District":"Nablus","Type":"earthmound"}},{"type":"Feature","id":23,"geometry":{"type":"Point","coordinates":[35.20980999967297,32.122959999490433]},"properties":{"OBJECTID_1":23,"Name":"505 Jamma'in","District":"Nablus","Type":"earthmound"}},{"type":"Feature","id":24,"geometry":{"type":"Point","coordinates":[35.315875000701872,32.056623000180693]},"properties":{"OBJECTID_1":24,"Name":"East Qaryut","District":"Nablus","Type":"earthmound"}},{"type":"Feature","id":25,"geometry":{"type":"Point","coordinates":[35.049495692160974,32.278977783344125]},"properties":{"OBJECTID_1":25,"Name":"Izbat Shufa South","District":"Tulkarm","Type":"earthmound"}},{"type":"Feature","id":26,"geometry":{"type":"Point","coordinates":[35.05755429357405,32.29422981657298]},"properties":{"OBJECTID_1":26,"Name":"Kafa-Al Haffasi 1","District":"Tulkarm","Type":"road block"}},{"type":"Feature","id":27,"geometry":{"type":"Point","coordinates":[35.272523999760004,32.181887000505185]},"properties":{"OBJECTID_1":27,"Name":"West Huwwara EM","District":"Nablus","Type":"earthmound"}},{"type":"Feature","id":28,"geometry":{"type":"Point","coordinates":[35.441972000539394,32.238620000475116]},"properties":{"OBJECTID_1":28,"Name":"North Hamra Earthmound 7","District":"Tubas","Type":"earthmound"}},{"type":"Feature","id":29,"geometry":{"type":"Point","coordinates":[34.996430000558227,32.195175000293496]},"properties":{"OBJECTID_1":29,"Name":"Ramadin / Zufin","District":"Qalqiliya","Type":"earthmound"}},{"type":"Feature","id":30,"geometry":{"type":"Point","coordinates":[35.326787999788905,32.120447999848395]},"properties":{"OBJECTID_1":30,"Name":"aqraba west block","District":"Nablus","Type":"road block"}},{"type":"Feature","id":31,"geometry":{"type":"Point","coordinates":[35.087785773532559,32.076902467701217]},"properties":{"OBJECTID_1":31,"Name":"Bruqin - Northwest","District":"Salfit","Type":"road block"}},{"type":"Feature","id":32,"geometry":{"type":"Point","coordinates":[35.229474000107814,32.125620999736391]},"properties":{"OBJECTID_1":32,"Name":"East Jamma\u0092in dirt road","District":"Nablus","Type":"road block"}},{"type":"Feature","id":33,"geometry":{"type":"Point","coordinates":[35.258008000076664,32.134249999628722]},"properties":{"OBJECTID_1":33,"Name":"Beita West to Huwara road","District":"Nablus","Type":"road block"}},{"type":"Feature","id":34,"geometry":{"type":"Point","coordinates":[35.22573700029313,31.924007000018094]},"properties":{"OBJECTID_1":34,"Name":"Bet El DCO","District":"Ramallah","Type":"partial checkpoint"}},{"type":"Feature","id":35,"geometry":{"type":"Point","coordinates":[35.200456000233245,31.982808999830027]},"properties":{"OBJECTID_1":35,"Name":"'Atara","District":"Ramallah","Type":"partial checkpoint"}},{"type":"Feature","id":36,"geometry":{"type":"Point","coordinates":[35.255760000014185,31.854120000403991]},"properties":{"OBJECTID_1":36,"Name":"Jaba' ","District":"Jerusalem","Type":"partial checkpoint"}},{"type":"Feature","id":37,"geometry":{"type":"Point","coordinates":[35.447386200337299,32.227854135026881]},"properties":{"OBJECTID_1":37,"Name":"North Hamra Earthmound 5","District":"Tubas","Type":"earthmound"}},{"type":"Feature","id":38,"geometry":{"type":"Point","coordinates":[35.450245999705729,32.21084699975151]},"properties":{"OBJECTID_1":38,"Name":"North Hamra Earthmound 2","District":"Nablus","Type":"earthmound"}},{"type":"Feature","id":39,"geometry":{"type":"Point","coordinates":[35.229392739121145,32.00423998560678]},"properties":{"OBJECTID_1":39,"Name":"Jiljiliya Road 465 Earthmound 1","District":"Ramallah","Type":"earthmound"}},{"type":"Feature","id":40,"geometry":{"type":"Point","coordinates":[35.286614833609391,31.886674467994162]},"properties":{"OBJECTID_1":40,"Name":"Deir Dibwan Earthmound","District":"Ramallah","Type":"earthmound"}},{"type":"Feature","id":41,"geometry":{"type":"Point","coordinates":[35.449651000342271,32.212997999823635]},"properties":{"OBJECTID_1":41,"Name":"North Hamra Earthmound 3","District":"Nablus","Type":"earthmound"}},{"type":"Feature","id":42,"geometry":{"type":"Point","coordinates":[35.288318000333675,31.762587000014069]},"properties":{"OBJECTID_1":42,"Name":"Abu Nwar West Earthmound","District":"Jerusalem","Type":"earthmound"}},{"type":"Feature","id":43,"geometry":{"type":"Point","coordinates":[35.251683611310114,31.908160246025687]},"properties":{"OBJECTID_1":43,"Name":"Burqa","District":"Ramallah","Type":"earthmound"}},{"type":"Feature","id":44,"geometry":{"type":"Point","coordinates":[35.340065179214818,31.811293752284726]},"properties":{"OBJECTID_1":44,"Name":"Khan Al Ahmar School Roadblock","District":"Jerusalem","Type":"road block"}},{"type":"Feature","id":45,"geometry":{"type":"Point","coordinates":[35.291552000022754,31.76383500056215]},"properties":{"OBJECTID_1":45,"Name":"Abu Nuwar East EM","District":"Jerusalem","Type":"earthmound"}},{"type":"Feature","id":46,"geometry":{"type":"Point","coordinates":[35.119971165153686,31.584990930990504]},"properties":{"OBJECTID_1":46,"Name":"Halhul(Nabi Youns) Entrance PCP","District":"Hebron","Type":"partial checkpoint"}},{"type":"Feature","id":47,"geometry":{"type":"Point","coordinates":[35.131671999825294,31.644913000142321]},"properties":{"OBJECTID_1":47,"Name":"Gush Etzion - Hebron PCP","District":"Hebron","Type":"partial checkpoint"}},{"type":"Feature","id":48,"geometry":{"type":"Point","coordinates":[35.12978891560418,31.527643999081487]},"properties":{"OBJECTID_1":48,"Name":"Al Jalajel/Road 60","District":"Hebron","Type":"earthmound"}},{"type":"Feature","id":49,"geometry":{"type":"Point","coordinates":[35.103429144418811,31.498392754037777]},"properties":{"OBJECTID_1":49,"Name":"Qalqas/Road 60 (1)","District":"Hebron","Type":"earthmound"}},{"type":"Feature","id":50,"geometry":{"type":"Point","coordinates":[35.203644322741027,31.647694806295885]},"properties":{"OBJECTID_1":50,"Name":"Tuqu'/Road 356 EM","District":"Bethlehem","Type":"earthmound"}},{"type":"Feature","id":51,"geometry":{"type":"Point","coordinates":[35.203190888496437,31.639857724507525]},"properties":{"OBJECTID_1":51,"Name":"Tuqu' Western Entrance PCP","District":"Bethlehem","Type":"partial checkpoint"}},{"type":"Feature","id":52,"geometry":{"type":"Point","coordinates":[35.132989000480904,31.506049999634175]},"properties":{"OBJECTID_1":52,"Name":"Bani Na'im Junction 60/356 EM","District":"Hebron","Type":"earthmound"}},{"type":"Feature","id":53,"geometry":{"type":"Point","coordinates":[35.132881999462086,31.625436999877671]},"properties":{"OBJECTID_1":53,"Name":"Al 'Arrub Camp/Road 60 RB (2)","District":"Hebron","Type":"road block"}},{"type":"Feature","id":54,"geometry":{"type":"Point","coordinates":[35.132874000074828,31.625649000060456]},"properties":{"OBJECTID_1":54,"Name":"Al 'Arrub Camp/Road 60 RB (3)","District":"Hebron","Type":"road block"}},{"type":"Feature","id":55,"geometry":{"type":"Point","coordinates":[35.127399999753017,31.562299999576478]},"properties":{"OBJECTID_1":55,"Name":"Beit 'Einun PCP (Sa'ir Side)","District":"Hebron","Type":"partial checkpoint"}},{"type":"Feature","id":56,"geometry":{"type":"Point","coordinates":[35.126386955647426,31.560528916504914]},"properties":{"OBJECTID_1":56,"Name":"Beit Einun PCP (Hebron Side)","District":"Hebron","Type":"partial checkpoint"}},{"type":"Feature","id":57,"geometry":{"type":"Point","coordinates":[35.159751999534699,31.498633000153532]},"properties":{"OBJECTID_1":57,"Name":"Road Block/Near Bani Na'im (Yaqeen)","District":"Hebron","Type":"road block"}},{"type":"Feature","id":58,"geometry":{"type":"Point","coordinates":[35.13184599959753,31.624292000338649]},"properties":{"OBJECTID_1":58,"Name":"Al 'Arrub Camp PCP","District":"Hebron","Type":"partial checkpoint"}},{"type":"Feature","id":59,"geometry":{"type":"Point","coordinates":[35.121150456196723,31.586088929699837]},"properties":{"OBJECTID_1":59,"Name":"Sa'ir PCP","District":"Hebron","Type":"partial checkpoint"}},{"type":"Feature","id":60,"geometry":{"type":"Point","coordinates":[35.105600030780096,31.601846458037663]},"properties":{"OBJECTID_1":60,"Name":"Earthmound/Halhul","District":"Hebron","Type":"earthmound"}},{"type":"Feature","id":61,"geometry":{"type":"Point","coordinates":[35.108519047944341,31.599599864117884]},"properties":{"OBJECTID_1":61,"Name":"Halhul (Al Hawawer)","District":"Hebron","Type":"partial checkpoint"}},{"type":"Feature","id":62,"geometry":{"type":"Point","coordinates":[35.132802237513012,31.470772423507515]},"properties":{"OBJECTID_1":62,"Name":"Zif/Yatta PCP","District":"Hebron","Type":"partial checkpoint"}},{"type":"Feature","id":63,"geometry":{"type":"Point","coordinates":[35.135589531354853,31.466258615228689]},"properties":{"OBJECTID_1":63,"Name":"Yatta/Road 356","District":"Hebron","Type":"earthmound"}},{"type":"Feature","id":64,"geometry":{"type":"Point","coordinates":[35.24627705856534,31.919424186254204]},"properties":{"OBJECTID_1":64,"Name":"Beitin Road 60 Earthmound 2","District":"Ramallah","Type":"earthmound"}},{"type":"Feature","id":65,"geometry":{"type":"Point","coordinates":[35.171764387603162,32.26369647338224]},"properties":{"OBJECTID_1":65,"Name":"At Tanib - Deir Sharaf","District":"Nablus","Type":"partial checkpoint"}},{"type":"Feature","id":66,"geometry":{"type":"Point","coordinates":[35.258461418777856,32.137060277012488]},"properties":{"OBJECTID_1":66,"Name":"Beita main entrance PcP","District":"Nablus","Type":"partial checkpoint"}},{"type":"Feature","id":67,"geometry":{"type":"Point","coordinates":[35.335173220077984,32.115594170031194]},"properties":{"OBJECTID_1":67,"Name":"Aqraba west 1 em","District":"Nablus","Type":"earthmound"}},{"type":"Feature","id":68,"geometry":{"type":"Point","coordinates":[35.294124901028688,31.890060378758552]},"properties":{"OBJECTID_1":68,"Name":"Deir Dibwan EM 2","District":"Ramallah","Type":"earthmound"}},{"type":"Feature","id":69,"geometry":{"type":"Point","coordinates":[35.350543651681356,32.025785565258694]},"properties":{"OBJECTID_1":69,"Name":"Al Mughayyer EM 1","District":"Ramallah","Type":"earthmound"}},{"type":"Feature","id":70,"geometry":{"type":"Point","coordinates":[35.411731071722635,32.133657960400313]},"properties":{"OBJECTID_1":70,"Name":"Khirbet Tana EM1","District":"Jericho","Type":"earthmound"}},{"type":"Feature","id":71,"geometry":{"type":"Point","coordinates":[35.052143131474395,31.990261001744013]},"properties":{"OBJECTID_1":71,"Name":"Shuqba East 446 EM 2","District":"Ramallah","Type":"earthmound"}},{"type":"Feature","id":72,"geometry":{"type":"Point","coordinates":[35.126737022243148,31.50464753080292]},"properties":{"OBJECTID_1":72,"Name":"Hebron City/Road 60 (6)","District":"Hebron","Type":"earthmound"}},{"type":"Feature","id":73,"geometry":{"type":"Point","coordinates":[35.006037562566426,31.561002709554174]},"properties":{"OBJECTID_1":73,"Name":"Road 35/Tarqumiya (3)","District":"Hebron","Type":"earthmound"}},{"type":"Feature","id":74,"geometry":{"type":"Point","coordinates":[34.982081852600565,31.572169062782251]},"properties":{"OBJECTID_1":74,"Name":"Idhna Entrance PCP","District":"Hebron","Type":"partial checkpoint"}},{"type":"Feature","id":75,"geometry":{"type":"Point","coordinates":[35.096416373931731,31.408399580693075]},"properties":{"OBJECTID_1":75,"Name":"Susiya/Yatta PCP","District":"Hebron","Type":"partial checkpoint"}},{"type":"Feature","id":76,"geometry":{"type":"Point","coordinates":[35.077299986033687,31.369446748270036]},"properties":{"OBJECTID_1":76,"Name":"As Samu'/Road 317 PCP","District":"Hebron","Type":"partial checkpoint"}},{"type":"Feature","id":77,"geometry":{"type":"Point","coordinates":[35.076843752264132,31.495049022778506]},"properties":{"OBJECTID_1":77,"Name":"Al Harayeq/Road 60 (2)","District":"Hebron","Type":"partial checkpoint"}},{"type":"Feature","id":78,"geometry":{"type":"Point","coordinates":[35.055125883345063,31.486352644342983]},"properties":{"OBJECTID_1":78,"Name":"Dura PCP","District":"Hebron","Type":"partial checkpoint"}},{"type":"Feature","id":79,"geometry":{"type":"Point","coordinates":[35.034665496252515,31.419831698648366]},"properties":{"OBJECTID_1":79,"Name":"As Samu'/Road 60 RB","District":"Hebron","Type":"road block"}},{"type":"Feature","id":80,"geometry":{"type":"Point","coordinates":[35.131828000497677,31.519750000043377]},"properties":{"OBJECTID_1":80,"Name":"Jabal Johar Entrance PCP","District":"Hebron","Type":"partial checkpoint"}},{"type":"Feature","id":81,"geometry":{"type":"Point","coordinates":[35.135196336032315,31.51674047097848]},"properties":{"OBJECTID_1":81,"Name":"Bani Na'im Entrance (Wadi Al Jouz) PCP","District":"Hebron","Type":"partial checkpoint"}},{"type":"Feature","id":82,"geometry":{"type":"Point","coordinates":[35.042910240884211,31.482476298990008]},"properties":{"OBJECTID_1":82,"Name":"Al Majnoneh Camp PCP","District":"Hebron","Type":"partial checkpoint"}},{"type":"Feature","id":83,"geometry":{"type":"Point","coordinates":[35.03456734160762,31.415976150712112]},"properties":{"OBJECTID_1":83,"Name":"As Samu' Entrance PCP","District":"Hebron","Type":"partial checkpoint"}},{"type":"Feature","id":84,"geometry":{"type":"Point","coordinates":[35.019737882214308,31.444288557167525]},"properties":{"OBJECTID_1":84,"Name":"Adh Dhahiriya PCP","District":"Hebron","Type":"partial checkpoint"}},{"type":"Feature","id":85,"geometry":{"type":"Point","coordinates":[35.119389851673247,31.500231967755902]},"properties":{"OBJECTID_1":85,"Name":"Al Fahs PCP 2","District":"Hebron","Type":"partial checkpoint"}},{"type":"Feature","id":86,"geometry":{"type":"Point","coordinates":[35.115426527613899,31.618569824102032]},"properties":{"OBJECTID_1":86,"Name":"Beit Ummar Entrance/Road 60  PCP","District":"Hebron","Type":"partial checkpoint"}},{"type":"Feature","id":87,"geometry":{"type":"Point","coordinates":[35.130561981221433,31.647068713711064]},"properties":{"OBJECTID_1":87,"Name":"Gush Etzoin-West","District":"Bethlehem","Type":"partial checkpoint"}},{"type":"Feature","id":88,"geometry":{"type":"Point","coordinates":[35.249009923805488,31.704195197316526]},"properties":{"OBJECTID_1":88,"Name":"Beit Jala/Dar Salah PCP","District":"Bethlehem","Type":"partial checkpoint"}},{"type":"Feature","id":89,"geometry":{"type":"Point","coordinates":[35.1330125513798,31.501740601100117]},"properties":{"OBJECTID_1":89,"Name":"Khallet Edar/Road 356 ","District":"Hebron","Type":"earthmound"}},{"type":"Feature","id":90,"geometry":{"type":"Point","coordinates":[35.152845522245237,31.49879209181902]},"properties":{"OBJECTID_1":90,"Name":"Bani Na'im (Yaqeen)/EM","District":"Hebron","Type":"road block"}},{"type":"Feature","id":91,"geometry":{"type":"Point","coordinates":[35.150134609427475,31.4168126928774]},"properties":{"OBJECTID_1":91,"Name":"Al Karmil PCP","District":"Hebron","Type":"partial checkpoint"}},{"type":"Feature","id":92,"geometry":{"type":"Point","coordinates":[34.942905250921584,31.359961373116036]},"properties":{"OBJECTID_1":92,"Name":"Ar Ramadin PCP","District":"Hebron","Type":"partial checkpoint"}},{"type":"Feature","id":93,"geometry":{"type":"Point","coordinates":[35.160176422887346,31.685951866185494]},"properties":{"OBJECTID_1":93,"Name":"Bethlehem Main Entrance PCP","District":"Bethlehem","Type":"partial checkpoint"}},{"type":"Feature","id":94,"geometry":{"type":"Point","coordinates":[35.177864738518444,31.715952115560377]},"properties":{"OBJECTID_1":94,"Name":"Beit Jala/DCL PCP","District":"Bethlehem","Type":"partial checkpoint"}},{"type":"Feature","id":95,"geometry":{"type":"Point","coordinates":[35.166248424497581,31.684686559548688]},"properties":{"OBJECTID_1":95,"Name":"Um Rukba/Al Khadr","District":"Bethlehem","Type":"partial checkpoint"}},{"type":"Feature","id":96,"geometry":{"type":"Point","coordinates":[35.202257616142063,31.633727670904754]},"properties":{"OBJECTID_1":96,"Name":"Marah Rabah PCP","District":"Bethlehem","Type":"partial checkpoint"}},{"type":"Feature","id":97,"geometry":{"type":"Point","coordinates":[35.180342949442093,31.598343577486251]},"properties":{"OBJECTID_1":97,"Name":"Wadi Sa'ir PCP","District":"Hebron","Type":"partial checkpoint"}},{"type":"Feature","id":98,"geometry":{"type":"Point","coordinates":[35.137365236934791,31.55672856221981]},"properties":{"OBJECTID_1":98,"Name":"Al 'Uddeisa Earthmound","District":"Hebron","Type":"earthmound"}},{"type":"Feature","id":99,"geometry":{"type":"Point","coordinates":[35.078662138059975,31.560155474483803]},"properties":{"OBJECTID_1":99,"Name":"Hebron (Farsh al Hawa) PCP","District":"Hebron","Type":"partial checkpoint"}},{"type":"Feature","id":100,"geometry":{"type":"Point","coordinates":[35.105937793447161,31.563526997272525]},"properties":{"OBJECTID_1":100,"Name":"Halhul/Road 35 ( Wadi Qaboun) ","District":"Hebron","Type":"earthmound"}},{"type":"Feature","id":101,"geometry":{"type":"Point","coordinates":[35.118061242210672,31.500877928917401]},"properties":{"OBJECTID_1":101,"Name":"Al Fahs (Hebron) PCP ","District":"Hebron","Type":"partial checkpoint"}},{"type":"Feature","id":102,"geometry":{"type":"Point","coordinates":[35.055937965722435,31.485816428525624]},"properties":{"OBJECTID_1":102,"Name":"Al Fawwar Main entrance PCP ","District":"Hebron","Type":"partial checkpoint"}},{"type":"Feature","id":103,"geometry":{"type":"Point","coordinates":[34.961932924885801,31.498780064047359]},"properties":{"OBJECTID_1":103,"Name":"Beit Awwa PCP ","District":"Hebron","Type":"partial checkpoint"}},{"type":"Feature","id":104,"geometry":{"type":"Point","coordinates":[35.230629688772837,32.195765500271399]},"properties":{"OBJECTID_1":104,"Name":"Tell-Burin - Nablus to road 60","District":"Nablus","Type":"partial checkpoint"}},{"type":"Feature","id":105,"geometry":{"type":"Point","coordinates":[35.034210874324707,31.470638855111716]},"properties":{"OBJECTID_1":105,"Name":"Wadi Ash Shajina Entrance PCP","District":"Hebron","Type":"partial checkpoint"}},{"type":"Feature","id":106,"geometry":{"type":"Point","coordinates":[35.429887874359103,32.187415184813652]},"properties":{"OBJECTID_1":106,"Name":"Khirbet Tana Rd 508  EM 3","District":"Jericho","Type":"earthmound"}},{"type":"Feature","id":107,"geometry":{"type":"Point","coordinates":[35.445918425176771,32.229322628216089]},"properties":{"OBJECTID_1":107,"Name":"Hamra CP North EM 6","District":"Tubas","Type":"earthmound"}},{"type":"Feature","id":108,"geometry":{"type":"Point","coordinates":[35.24651296018483,31.676195917708323]},"properties":{"OBJECTID_1":108,"Name":"Beit Ta'mir PCP","District":"Bethlehem","Type":"partial checkpoint"}},{"type":"Feature","id":109,"geometry":{"type":"Point","coordinates":[35.22659719829938,31.66481846261231]},"properties":{"OBJECTID_1":109,"Name":"Jannatah CP (Main entrance)","District":"Bethlehem","Type":"partial checkpoint"}},{"type":"Feature","id":110,"geometry":{"type":"Point","coordinates":[35.102780735065522,32.117802420956153]},"properties":{"OBJECTID_1":110,"Name":"Qarawat Bani Hassan - PCP","District":"Salfit","Type":"partial checkpoint"}},{"type":"Feature","id":111,"geometry":{"type":"Point","coordinates":[35.284576129539502,32.058903690615708]},"properties":{"OBJECTID_1":111,"Name":"Qaryut  road to road 60","District":"Nablus","Type":"road block"}},{"type":"Feature","id":112,"geometry":{"type":"Point","coordinates":[35.046692993604772,32.279555937509123]},"properties":{"OBJECTID_1":112,"Name":"Izbet Shufa north west to Road 557 ","District":"Tulkarm","Type":"road block"}},{"type":"Feature","id":113,"geometry":{"type":"Point","coordinates":[35.246710703558591,31.916868914348328]},"properties":{"OBJECTID_1":113,"Name":"Betin-Road 60 EM 1 -new, replacing the old tower","District":"Ramallah","Type":"earthmound"}},{"type":"Feature","id":114,"geometry":{"type":"Point","coordinates":[35.243319202010134,31.795488262552972]},"properties":{"OBJECTID_1":114,"Name":"Al 'Isawiya Rd Block","District":"Jerusalem","Type":"road block"}},{"type":"Feature","id":115,"geometry":{"type":"Point","coordinates":[35.245185764831767,31.692592505821327]},"properties":{"OBJECTID_1":115,"Name":"Dhahrat an Nada PCP","District":"Bethlehem","Type":"partial checkpoint"}},{"type":"Feature","id":116,"geometry":{"type":"Point","coordinates":[35.126935048670354,31.706289332296976]},"properties":{"OBJECTID_1":116,"Name":"Husan Western Entrance (PCP)","District":"Bethlehem","Type":"partial checkpoint"}},{"type":"Feature","id":117,"geometry":{"type":"Point","coordinates":[35.218290402065669,31.647983504035157]},"properties":{"OBJECTID_1":117,"Name":"Tuqu Northern Entrance","District":"Bethlehem","Type":"partial checkpoint"}},{"type":"Feature","id":118,"geometry":{"type":"Point","coordinates":[35.208556863261485,31.627153844449811]},"properties":{"OBJECTID_1":118,"Name":"Khirbet Tuqu PCP","District":"Bethlehem","Type":"partial checkpoint"}},{"type":"Feature","id":119,"geometry":{"type":"Point","coordinates":[35.156487710385463,31.704999314932344]},"properties":{"OBJECTID_1":119,"Name":" Al Khadr PCP ","District":"Bethlehem","Type":"partial checkpoint"}},{"type":"Feature","id":120,"geometry":{"type":"Point","coordinates":[35.152786318660993,32.434026014481468]},"properties":{"OBJECTID_1":120,"Name":"Ya'abad1","District":"Jenin","Type":"partial checkpoint"}},{"type":"Feature","id":121,"geometry":{"type":"Point","coordinates":[35.120605815832434,32.427487877146895]},"properties":{"OBJECTID_1":121,"Name":" Khirbet Faraseen ","District":"Jenin","Type":"partial checkpoint"}},{"type":"Feature","id":122,"geometry":{"type":"Point","coordinates":[35.052160220767909,32.278702408848375]},"properties":{"OBJECTID_1":122,"Name":"Izbat Shufa Southeast - Road 557 ","District":"Tulkarm","Type":"earthmound"}},{"type":"Feature","id":123,"geometry":{"type":"Point","coordinates":[35.175879109435641,32.216438374540004]},"properties":{"OBJECTID_1":123,"Name":"Nablus/Qalqiliya junction - Tulkarm","District":"Qalqiliya","Type":"partial checkpoint"}},{"type":"Feature","id":124,"geometry":{"type":"Point","coordinates":[35.060703093725039,32.29636630502268]},"properties":{"OBJECTID_1":124,"Name":"Kaffa, Al Haffasi to Dinnabeh","District":"Tulkarm","Type":"road block"}},{"type":"Feature","id":125,"geometry":{"type":"Point","coordinates":[35.165292097538888,32.434510327271752]},"properties":{"OBJECTID_1":125,"Name":"Ya'abad2","District":"Jenin","Type":"partial checkpoint"}},{"type":"Feature","id":126,"geometry":{"type":"Point","coordinates":[35.230572185045169,32.194859763917698]},"properties":{"OBJECTID_1":126,"Name":"Burin-tell junction - Road 60","District":"Nablus","Type":"partial checkpoint"}},{"type":"Feature","id":127,"geometry":{"type":"Point","coordinates":[35.265035791990762,32.166611374920357]},"properties":{"OBJECTID_1":127,"Name":"Huwwara earth mound","District":"Nablus","Type":"earthmound"}},{"type":"Feature","id":128,"geometry":{"type":"Point","coordinates":[35.265691917885412,32.167142915357019]},"properties":{"OBJECTID_1":128,"Name":"Road blocks huwwara","District":"Nablus","Type":"road block"}},{"type":"Feature","id":129,"geometry":{"type":"Point","coordinates":[35.133592961538938,31.918234890515429]},"properties":{"OBJECTID_1":129,"Name":"Deir Ibzi ","District":"Ramallah","Type":"earthmound"}},{"type":"Feature","id":130,"geometry":{"type":"Point","coordinates":[35.06584606892303,32.158849615642453]},"properties":{"OBJECTID_1":130,"Name":"Arab al Khouli PCP","District":"Qalqiliya","Type":"road block"}},{"type":"Feature","id":131,"geometry":{"type":"Point","coordinates":[35.320362012581427,32.196599274197752]},"properties":{"OBJECTID_1":131,"Name":"Beit Furik entrance- road 555","District":"Nablus","Type":"partial checkpoint"}},{"type":"Feature","id":132,"geometry":{"type":"Point","coordinates":[35.168037094650472,32.265824296788033]},"properties":{"OBJECTID_1":132,"Name":"Al Junidi ","District":"Nablus","Type":"partial checkpoint"}},{"type":"Feature","id":133,"geometry":{"type":"Point","coordinates":[35.266217261440261,31.825149532932752]},"properties":{"OBJECTID_1":133,"Name":"Tublas south ","District":"Jerusalem","Type":"road block"}},{"type":"Feature","id":134,"geometry":{"type":"Point","coordinates":[35.112960446395938,31.612665845716961]},"properties":{"OBJECTID_1":134,"Name":"Beit Ummar/Road 60 EM ","District":"Hebron","Type":"earthmound"}},{"type":"Feature","id":135,"geometry":{"type":"Point","coordinates":[35.182150823112494,32.27143619599255]},"properties":{"OBJECTID_1":135,"Name":"Sabastiya main entrance","District":"Nablus","Type":"partial checkpoint"}},{"type":"Feature","id":136,"geometry":{"type":"Point","coordinates":[35.176754692969695,32.275213376514301]},"properties":{"OBJECTID_1":136,"Name":"Sabastiya- Sahel Ramin","District":"Nablus","Type":"partial checkpoint"}},{"type":"Feature","id":137,"geometry":{"type":"Point","coordinates":[35.179864342667621,32.308669550798875]},"properties":{"OBJECTID_1":137,"Name":"Evacuated Homesh Israeli settlement ( Burqa village lands) to road “60”","District":"Nablus","Type":"partial checkpoint"}},{"type":"Feature","id":138,"geometry":{"type":"Point","coordinates":[34.996427843956369,32.188065130664263]},"properties":{"OBJECTID_1":138,"Name":"Qalqilia main entrance","District":"Qalqiliya","Type":"partial checkpoint"}},{"type":"Feature","id":139,"geometry":{"type":"Point","coordinates":[35.025014188512429,31.557989971257708]},"properties":{"OBJECTID_1":139,"Name":"Tarqumiya/ Road 35 EM ","District":"Hebron","Type":"earthmound"}},{"type":"Feature","id":140,"geometry":{"type":"Point","coordinates":[34.982720998372862,31.573285148424333]},"properties":{"OBJECTID_1":140,"Name":"Tarqumiya Entrance PCP ","District":"Hebron","Type":"partial checkpoint"}},{"type":"Feature","id":141,"geometry":{"type":"Point","coordinates":[34.950386435446042,31.497994344106996]},"properties":{"OBJECTID_1":141,"Name":"Beit Awwa South RB","District":"Hebron","Type":"road block"}},{"type":"Feature","id":142,"geometry":{"type":"Point","coordinates":[35.0955485081803,31.497645112712814]},"properties":{"OBJECTID_1":142,"Name":"Qalqas/Hebron PCP","District":"Hebron","Type":"partial checkpoint"}},{"type":"Feature","id":143,"geometry":{"type":"Point","coordinates":[35.101816164617063,31.942982034419117]},"properties":{"OBJECTID_1":143,"Name":"Ras Karkar agricultural road to 455","District":"Ramallah","Type":"earthmound"}},{"type":"Feature","id":144,"geometry":{"type":"Point","coordinates":[35.258084346777977,32.137082005201982]},"properties":{"OBJECTID_1":144,"Name":"Beit circle road 60","District":"Nablus","Type":"partial checkpoint"}},{"type":"Feature","id":145,"geometry":{"type":"Point","coordinates":[35.315694510091774,32.119598697476071]},"properties":{"OBJECTID_1":145,"Name":"Jurish em","District":"Nablus","Type":"earthmound"}},{"type":"Feature","id":146,"geometry":{"type":"Point","coordinates":[35.315189129261952,32.11962147783035]},"properties":{"OBJECTID_1":146,"Name":"Aqraba agricultural road to rd 505","District":"Nablus","Type":"earthmound"}},{"type":"Feature","id":147,"geometry":{"type":"Point","coordinates":[35.342306794422718,32.105486237615132]},"properties":{"OBJECTID_1":147,"Name":"Aqraba west agricultural road","District":"Nablus","Type":"earthmound"}},{"type":"Feature","id":148,"geometry":{"type":"Point","coordinates":[35.34234698373433,32.085517552912521]},"properties":{"OBJECTID_1":148,"Name":"Qusra entrance pcp","District":"Nablus","Type":"partial checkpoint"}},{"type":"Feature","id":149,"geometry":{"type":"Point","coordinates":[35.100485197980994,31.562983797116967]},"properties":{"OBJECTID_1":149,"Name":"Halhul Bridge PCP","District":"Hebron","Type":"partial checkpoint"}},{"type":"Feature","id":150,"geometry":{"type":"Point","coordinates":[35.256541567416086,32.054728232325139]},"properties":{"OBJECTID_1":150,"Name":"Northern West Sinjil RB","District":"Ramallah","Type":"road block"}},{"type":"Feature","id":151,"geometry":{"type":"Point","coordinates":[35.254304940021918,32.004860015274645]},"properties":{"OBJECTID_1":151,"Name":"Silwad west agricultural road ","District":"Ramallah","Type":"earthmound"}},{"type":"Feature","id":152,"geometry":{"type":"Point","coordinates":[35.254546143834723,32.004759208545558]},"properties":{"OBJECTID_1":152,"Name":"Al Mazra'a Ash Sharqiya EM","District":"Ramallah","Type":"earthmound"}},{"type":"Feature","id":153,"geometry":{"type":"Point","coordinates":[35.254756959371591,31.944867323418684]},"properties":{"OBJECTID_1":153,"Name":"Ein Yabrud EM","District":"Ramallah","Type":"earthmound"}},{"type":"Feature","id":154,"geometry":{"type":"Point","coordinates":[35.212937473172055,31.651574341919915]},"properties":{"OBJECTID_1":154,"Name":"Khirbet ad Deir/Road 356 PCP (2)","District":"Bethlehem","Type":"partial checkpoint"}},{"type":"Feature","id":155,"geometry":{"type":"Point","coordinates":[35.079455182789431,32.074245742585013]},"properties":{"OBJECTID_1":155,"Name":"Kafr ad Dik - North 2","District":"Salfit","Type":"road block"}},{"type":"Feature","id":156,"geometry":{"type":"Point","coordinates":[35.082469857307494,32.074591708239439]},"properties":{"OBJECTID_1":156,"Name":"Kafr ad Dik - North 3","District":"Salfit","Type":"road block"}},{"type":"Feature","id":157,"geometry":{"type":"Point","coordinates":[35.138948159197675,31.706821750422232]},"properties":{"OBJECTID_1":157,"Name":"Husan PCP","District":"Bethlehem","Type":"partial checkpoint"}},{"type":"Feature","id":158,"geometry":{"type":"Point","coordinates":[35.123121784699812,31.691494854689296]},"properties":{"OBJECTID_1":158,"Name":"Husan/Nahhalin PCP","District":"Bethlehem","Type":"partial checkpoint"}},{"type":"Feature","id":159,"geometry":{"type":"Point","coordinates":[35.175731974049,32.306191656083499]},"properties":{"OBJECTID_1":159,"Name":"Bizzariya","District":"Nablus","Type":"partial checkpoint"}},{"type":"Feature","id":160,"geometry":{"type":"Point","coordinates":[35.165934618342511,32.10917535768349]},"properties":{"OBJECTID_1":160,"Name":"Ariel Roundabout","District":"Salfit","Type":"partial checkpoint"}},{"type":"Feature","id":161,"geometry":{"type":"Point","coordinates":[35.138681279883343,32.109394375868426]},"properties":{"OBJECTID_1":161,"Name":"Haris PCP","District":"Salfit","Type":"partial checkpoint"}},{"type":"Feature","id":162,"geometry":{"type":"Point","coordinates":[35.109639325839751,32.090098606487366]},"properties":{"OBJECTID_1":162,"Name":"Bruqin","District":"Salfit","Type":"road block"}},{"type":"Feature","id":163,"geometry":{"type":"Point","coordinates":[35.116232866933409,32.095149877130474]},"properties":{"OBJECTID_1":163,"Name":"Bruqin - Barkan","District":"Salfit","Type":"road block"}},{"type":"Feature","id":164,"geometry":{"type":"Point","coordinates":[35.13450466033779,32.114143059822183]},"properties":{"OBJECTID_1":164,"Name":"Haris- internal road ","District":"Salfit","Type":"road block"}},{"type":"Feature","id":165,"geometry":{"type":"Point","coordinates":[35.134858796449095,32.116960468736998]},"properties":{"OBJECTID_1":165,"Name":"Haris - Wadi Qana road (5066)","District":"Salfit","Type":"earthmound"}},{"type":"Feature","id":166,"geometry":{"type":"Point","coordinates":[35.137766981533062,32.139265676669318]},"properties":{"OBJECTID_1":166,"Name":"Deir Istiya entrance","District":"Salfit","Type":"partial checkpoint"}},{"type":"Feature","id":167,"geometry":{"type":"Point","coordinates":[35.139792999949954,32.14141299953544]},"properties":{"OBJECTID_1":167,"Name":"Deir Istiya - dirt road to wadi Qana road","District":"Salfit","Type":"road block"}},{"type":"Feature","id":168,"geometry":{"type":"Point","coordinates":[35.157695626576285,32.207619426573139]},"properties":{"OBJECTID_1":168,"Name":"Kedumim circle-PcP","District":"Qalqiliya","Type":"partial checkpoint"}},{"type":"Feature","id":169,"geometry":{"type":"Point","coordinates":[35.108667350806421,31.523958426775089]},"properties":{"OBJECTID_1":169,"Name":"Bani Dar RB.1 ","District":"Hebron","Type":"road block"}},{"type":"Feature","id":170,"geometry":{"type":"Point","coordinates":[35.142907840491176,31.490226622546444]},"properties":{"OBJECTID_1":170,"Name":"Bani Naim/Road 356 PCP","District":"Hebron","Type":"partial checkpoint"}},{"type":"Feature","id":171,"geometry":{"type":"Point","coordinates":[35.137963633250578,31.464755011655487]},"properties":{"OBJECTID_1":171,"Name":"Yatta /Road 356 EM","District":"Hebron","Type":"earthmound"}},{"type":"Feature","id":172,"geometry":{"type":"Point","coordinates":[35.138907758002418,31.463487013448095]},"properties":{"OBJECTID_1":172,"Name":"Yatta road 317 EM","District":"Hebron","Type":"earthmound"}},{"type":"Feature","id":173,"geometry":{"type":"Point","coordinates":[35.12366790432305,31.526586700860271]},"properties":{"OBJECTID_1":173,"Name":"Jabal Johur RB, Near Kiryat Arab’a","District":"Hebron","Type":"road block"}},{"type":"Feature","id":174,"geometry":{"type":"Point","coordinates":[35.12293518136277,31.524821587982586]},"properties":{"OBJECTID_1":174,"Name":"Jabal Jouhr PCP","District":"Hebron","Type":"partial checkpoint"}},{"type":"Feature","id":175,"geometry":{"type":"Point","coordinates":[35.186294482889167,31.433576784870546]},"properties":{"OBJECTID_1":175,"Name":"Umm Al Kheir PCP","District":"Hebron","Type":"partial checkpoint"}},{"type":"Feature","id":176,"geometry":{"type":"Point","coordinates":[35.186071144695454,31.433683602030644]},"properties":{"OBJECTID_1":176,"Name":"Umm ad Daraj PCP","District":"Hebron","Type":"partial checkpoint"}},{"type":"Feature","id":177,"geometry":{"type":"Point","coordinates":[35.131880287607324,31.531832925778055]},"properties":{"OBJECTID_1":177,"Name":"Bani Naim Entrance (Al Jalajel) PCP","District":"Hebron","Type":"partial checkpoint"}},{"type":"Feature","id":178,"geometry":{"type":"Point","coordinates":[35.119864912617807,31.621432202526119]},"properties":{"OBJECTID_1":178,"Name":"Beit Ummar / Road 60","District":"Hebron","Type":"earthmound"}},{"type":"Feature","id":179,"geometry":{"type":"Point","coordinates":[35.215900260141808,31.624112495188317]},"properties":{"OBJECTID_1":179,"Name":"Al Maniya  PCP","District":"Bethlehem","Type":"partial checkpoint"}},{"type":"Feature","id":180,"geometry":{"type":"Point","coordinates":[35.228968832911256,31.592468747085587]},"properties":{"OBJECTID_1":180,"Name":"Arab Ar Rashaiyda PCP","District":"Bethlehem","Type":"partial checkpoint"}},{"type":"Feature","id":181,"geometry":{"type":"Point","coordinates":[35.103516020086346,31.526858442355472]},"properties":{"OBJECTID_1":181,"Name":"Al Daboya RB","District":"Hebron","Type":"road block"}},{"type":"Feature","id":182,"geometry":{"type":"Point","coordinates":[35.074234659747404,31.669229522763104]},"properties":{"OBJECTID_1":182,"Name":"Al Jabaa/Surif PCP","District":"Bethlehem","Type":"partial checkpoint"}},{"type":"Feature","id":183,"geometry":{"type":"Point","coordinates":[35.103418030270369,31.525124993992559]},"properties":{"OBJECTID_1":183,"Name":"Tal Rumeida RB (Near YAS)","District":"Hebron","Type":"road block"}},{"type":"Feature","id":184,"geometry":{"type":"Point","coordinates":[35.104646705625051,31.526082145573415]},"properties":{"OBJECTID_1":184,"Name":"Gold Market RB","District":"Hebron","Type":"road block"}},{"type":"Feature","id":185,"geometry":{"type":"Point","coordinates":[35.157534610122489,31.704614921389332]},"properties":{"OBJECTID_1":185,"Name":"Al Khadr West PCP","District":"Bethlehem","Type":"partial checkpoint"}},{"type":"Feature","id":186,"geometry":{"type":"Point","coordinates":[35.105342511036888,31.525935884065714]},"properties":{"OBJECTID_1":186,"Name":"Bab Al Baladieyeh RB","District":"Hebron","Type":"road block"}},{"type":"Feature","id":187,"geometry":{"type":"Point","coordinates":[35.106141376686402,31.525108448960253]},"properties":{"OBJECTID_1":187,"Name":"Old Bus Station Entrance RB","District":"Hebron","Type":"road block"}},{"type":"Feature","id":188,"geometry":{"type":"Point","coordinates":[35.106124340901665,31.524265164356898]},"properties":{"OBJECTID_1":188,"Name":"From Al Qazazin Mosque to Old Bus Station","District":"Hebron","Type":"road block"}},{"type":"Feature","id":189,"geometry":{"type":"Point","coordinates":[35.106112094119425,31.524235112176122]},"properties":{"OBJECTID_1":189,"Name":"Chicken Market RB","District":"Hebron","Type":"road block"}},{"type":"Feature","id":190,"geometry":{"type":"Point","coordinates":[35.040802148389695,32.280971754631217]},"properties":{"OBJECTID_1":190,"Name":"Kafriat PCP","District":"Tulkarm","Type":"partial checkpoint"}},{"type":"Feature","id":191,"geometry":{"type":"Point","coordinates":[35.082434079633515,32.271964246064059]},"properties":{"OBJECTID_1":191,"Name":"Shufa South PCP 557","District":"Tulkarm","Type":"partial checkpoint"}},{"type":"Feature","id":192,"geometry":{"type":"Point","coordinates":[35.202394221283221,31.640923647663659]},"properties":{"OBJECTID_1":192,"Name":"Tuqu'/RD 356 PCP","District":"Bethlehem","Type":"partial checkpoint"}},{"type":"Feature","id":193,"geometry":{"type":"Point","coordinates":[35.113956552012965,31.52879239172519]},"properties":{"OBJECTID_1":193,"Name":"Wadi Al Ghrous RB.1","District":"Hebron","Type":"road block"}},{"type":"Feature","id":194,"geometry":{"type":"Point","coordinates":[35.113475227853257,31.526739846724197]},"properties":{"OBJECTID_1":194,"Name":"Rajabi Building PCP","District":"Hebron","Type":"partial checkpoint"}},{"type":"Feature","id":195,"geometry":{"type":"Point","coordinates":[35.112414062411993,31.523715453193979]},"properties":{"OBJECTID_1":195,"Name":"Jaber neighborhood RB.1","District":"Hebron","Type":"road block"}},{"type":"Feature","id":196,"geometry":{"type":"Point","coordinates":[35.11244769688625,31.524448939682181]},"properties":{"OBJECTID_1":196,"Name":"Jaber Neighborhood RB. 2 ","District":"Hebron","Type":"road block"}},{"type":"Feature","id":197,"geometry":{"type":"Point","coordinates":[35.243771737202238,31.69454075338874]},"properties":{"OBJECTID_1":197,"Name":"Ash Shawawreh PCP","District":"Bethlehem","Type":"partial checkpoint"}},{"type":"Feature","id":198,"geometry":{"type":"Point","coordinates":[35.211099414542979,31.651574573508153]},"properties":{"OBJECTID_1":198,"Name":"Tuqu/Road 356 PCP (2)","District":"Bethlehem","Type":"partial checkpoint"}},{"type":"Feature","id":199,"geometry":{"type":"Point","coordinates":[35.206674859043559,31.652588113159517]},"properties":{"OBJECTID_1":199,"Name":"Khirbet ad Deir/Road 356 PCP  ","District":"Bethlehem","Type":"partial checkpoint"}},{"type":"Feature","id":200,"geometry":{"type":"Point","coordinates":[35.1095401530741,31.523095233791476]},"properties":{"OBJECTID_1":200,"Name":"Al Ibrahimeyeh School RB","District":"Hebron","Type":"road block"}},{"type":"Feature","id":201,"geometry":{"type":"Point","coordinates":[35.112000472628118,31.523807071936151]},"properties":{"OBJECTID_1":201,"Name":"Al Salaymeh Neigbourhood RB.1","District":"Hebron","Type":"road block"}},{"type":"Feature","id":202,"geometry":{"type":"Point","coordinates":[35.113349001548613,31.521860062118147]},"properties":{"OBJECTID_1":202,"Name":"Al Salaymeh CP RB.1","District":"Hebron","Type":"road block"}},{"type":"Feature","id":203,"geometry":{"type":"Point","coordinates":[35.162602447114018,32.209317248361309]},"properties":{"OBJECTID_1":203,"Name":"Jit south west/Kedumim south","District":"Qalqiliya","Type":"partial checkpoint"}},{"type":"Feature","id":204,"geometry":{"type":"Point","coordinates":[35.112525761019725,31.52256586496156]},"properties":{"OBJECTID_1":204,"Name":"Al Salaymeh CP RB.2","District":"Hebron","Type":"road block"}},{"type":"Feature","id":205,"geometry":{"type":"Point","coordinates":[35.107527918138381,31.523033109615788]},"properties":{"OBJECTID_1":205,"Name":"Qitoun RB.1 ","District":"Hebron","Type":"road block"}},{"type":"Feature","id":206,"geometry":{"type":"Point","coordinates":[35.107074863465861,31.522590635115229]},"properties":{"OBJECTID_1":206,"Name":"Qitoun RB.2","District":"Hebron","Type":"road block"}},{"type":"Feature","id":207,"geometry":{"type":"Point","coordinates":[34.960161325998079,31.497505973574892]},"properties":{"OBJECTID_1":207,"Name":"Beit Awwar Agricultural RB","District":"Hebron","Type":"road block"}},{"type":"Feature","id":208,"geometry":{"type":"Point","coordinates":[35.09532874475061,31.497147629128801]},"properties":{"OBJECTID_1":208,"Name":"Qalqas PCP","District":"Hebron","Type":"partial checkpoint"}},{"type":"Feature","id":209,"geometry":{"type":"Point","coordinates":[34.975460166953532,32.172335495164361]},"properties":{"OBJECTID_1":209,"Name":"Ha last tunnels concrete blocks ","District":"Qalqiliya","Type":"partial checkpoint"}},{"type":"Feature","id":210,"geometry":{"type":"Point","coordinates":[35.105451025748138,31.524203735183562]},"properties":{"OBJECTID_1":210,"Name":"Cemetery Entrance RB","District":"Hebron","Type":"road block"}},{"type":"Feature","id":211,"geometry":{"type":"Point","coordinates":[35.231173377784806,32.19802691903088]},"properties":{"OBJECTID_1":211,"Name":"Tell-concrete blocks 1","District":"Nablus","Type":"partial checkpoint"}},{"type":"Feature","id":212,"geometry":{"type":"Point","coordinates":[35.231241010923902,32.19531180196816]},"properties":{"OBJECTID_1":212,"Name":"Tell PCP 2","District":"Nablus","Type":"partial checkpoint"}},{"type":"Feature","id":213,"geometry":{"type":"Point","coordinates":[35.151278001428011,31.416710657022552]},"properties":{"OBJECTID_1":213,"Name":"At Tuwani PCP","District":"Hebron","Type":"partial checkpoint"}},{"type":"Feature","id":214,"geometry":{"type":"Point","coordinates":[35.133696960483896,31.38350235837429]},"properties":{"OBJECTID_1":214,"Name":"Khirbet Bir al Idd RB","District":"Hebron","Type":"road block"}},{"type":"Feature","id":215,"geometry":{"type":"Point","coordinates":[35.273898752748323,32.117190570176056]},"properties":{"OBJECTID_1":215,"Name":"Evatar PcP","District":"Nablus","Type":"partial checkpoint"}},{"type":"Feature","id":216,"geometry":{"type":"Point","coordinates":[35.286414530316549,32.119734681954931]},"properties":{"OBJECTID_1":216,"Name":"Evatar road block","District":"Nablus","Type":"road block"}},{"type":"Feature","id":217,"geometry":{"type":"Point","coordinates":[35.312563458804028,32.121854022028593]},"properties":{"OBJECTID_1":217,"Name":"Osarin ","District":"Nablus","Type":"earthmound"}},{"type":"Feature","id":218,"geometry":{"type":"Point","coordinates":[35.10463659645918,31.525620902517741]},"properties":{"OBJECTID_1":218,"Name":"Old Qurtoba School Stairway RB","District":"Hebron","Type":"road block"}},{"type":"Feature","id":219,"geometry":{"type":"Point","coordinates":[35.109759999778646,31.524419769654649]},"properties":{"OBJECTID_1":219,"Name":"Al Muhtaseb Neighborhood RB ","District":"Hebron","Type":"road block"}},{"type":"Feature","id":220,"geometry":{"type":"Point","coordinates":[35.33186194529258,32.117897626119117]},"properties":{"OBJECTID_1":220,"Name":"Aqraba agricultural entrance","District":"Nablus","Type":"road block"}},{"type":"Feature","id":221,"geometry":{"type":"Point","coordinates":[35.333840757175302,32.115710465732825]},"properties":{"OBJECTID_1":221,"Name":"Jurish/Qusra Agriculture earth mound","District":"Nablus","Type":"earthmound"}},{"type":"Feature","id":222,"geometry":{"type":"Point","coordinates":[35.333613059355471,32.116153939315467]},"properties":{"OBJECTID_1":222,"Name":"Aqraba/Jurish agriculture earthmound","District":"Nablus","Type":"earthmound"}},{"type":"Feature","id":223,"geometry":{"type":"Point","coordinates":[35.101610000014389,31.525360308834056]},"properties":{"OBJECTID_1":223,"Name":"Azzeh Family RB","District":"Hebron","Type":"road block"}},{"type":"Feature","id":224,"geometry":{"type":"Point","coordinates":[35.10165817596036,31.524683016632551]},"properties":{"OBJECTID_1":224,"Name":"Tal Rumeida. Abu Hikal family RB.1","District":"Hebron","Type":"road block"}},{"type":"Feature","id":225,"geometry":{"type":"Point","coordinates":[35.10138413662397,31.524568438562476]},"properties":{"OBJECTID_1":225,"Name":"Tal Rumeida. Abu Hikal family RB.2","District":"Hebron","Type":"road block"}},{"type":"Feature","id":226,"geometry":{"type":"Point","coordinates":[35.098665009909084,31.525760318821739]},"properties":{"OBJECTID_1":226,"Name":"Tal Rumeida Fens","District":"Hebron","Type":"road block"}},{"type":"Feature","id":227,"geometry":{"type":"Point","coordinates":[35.142192272150872,32.108985599916103]},"properties":{"OBJECTID_1":227,"Name":"Izbat Abu Adam 2","District":"Salfit","Type":"road block"}},{"type":"Feature","id":228,"geometry":{"type":"Point","coordinates":[35.139644528045125,32.108890498430696]},"properties":{"OBJECTID_1":228,"Name":"Izbat Abu Adam - Haris Road 5","District":"Salfit","Type":"road block"}},{"type":"Feature","id":229,"geometry":{"type":"Point","coordinates":[35.006823226676843,32.186685292602107]},"properties":{"OBJECTID_1":229,"Name":"Qalqiliya-Road 55","District":"Qalqiliya","Type":"partial checkpoint"}},{"type":"Feature","id":230,"geometry":{"type":"Point","coordinates":[35.134797692384957,32.117918352797915]},"properties":{"OBJECTID_1":230,"Name":"Haris-Deir Istiya/Agricultural lands","District":"Salfit","Type":"earthmound"}},{"type":"Feature","id":231,"geometry":{"type":"Point","coordinates":[35.136184618554211,32.137013953363137]},"properties":{"OBJECTID_1":231,"Name":"Deir Istiya Agri land","District":"Salfit","Type":"earthmound"}},{"type":"Feature","id":232,"geometry":{"type":"Point","coordinates":[35.146258492310565,32.196009768288683]},"properties":{"OBJECTID_1":232,"Name":"Immatin entrance - PCP ","District":"Qalqiliya","Type":"partial checkpoint"}},{"type":"Feature","id":233,"geometry":{"type":"Point","coordinates":[35.155367651370462,32.203710300001894]},"properties":{"OBJECTID_1":233,"Name":"Immatin road 55","District":"Qalqiliya","Type":"earthmound"}},{"type":"Feature","id":234,"geometry":{"type":"Point","coordinates":[35.256094383607604,31.953089216715654]},"properties":{"OBJECTID_1":234,"Name":"Ein Yabroud North 60 Road ","District":"Ramallah","Type":"earthmound"}},{"type":"Feature","id":235,"geometry":{"type":"Point","coordinates":[35.11827657336574,31.978974935999602]},"properties":{"OBJECTID_1":235,"Name":"Beitillu partial checkpoint","District":"Ramallah","Type":"partial checkpoint"}},{"type":"Feature","id":236,"geometry":{"type":"Point","coordinates":[35.264505351904411,32.087681342074056]},"properties":{"OBJECTID_1":236,"Name":"As sawyeh entr","District":"Nablus","Type":"partial checkpoint"}},{"type":"Feature","id":237,"geometry":{"type":"Point","coordinates":[35.246049648439886,32.072341452401112]},"properties":{"OBJECTID_1":237,"Name":"Luban","District":"Nablus","Type":"partial checkpoint"}},{"type":"Feature","id":238,"geometry":{"type":"Point","coordinates":[35.246626860688309,32.063738266954019]},"properties":{"OBJECTID_1":238,"Name":"Luban agr entrance","District":"Nablus","Type":"earthmound"}},{"type":"Feature","id":239,"geometry":{"type":"Point","coordinates":[35.17155823612989,32.11049927765427]},"properties":{"OBJECTID_1":239,"Name":"Salfit-Ariel North","District":"Salfit","Type":"road block"}},{"type":"Feature","id":240,"geometry":{"type":"Point","coordinates":[35.246551957714132,32.063204014102716]},"properties":{"OBJECTID_1":240,"Name":"Laban 2 rb","District":"Nablus","Type":"road block"}},{"type":"Feature","id":241,"geometry":{"type":"Point","coordinates":[35.246776039180801,32.066428032221509]},"properties":{"OBJECTID_1":241,"Name":"Lubban3","District":"Nablus","Type":"road block"}},{"type":"Feature","id":242,"geometry":{"type":"Point","coordinates":[35.086878727394762,32.076084398546627]},"properties":{"OBJECTID_1":242,"Name":"Kafr ad Dik - Northeast 1","District":"Salfit","Type":"road block"}},{"type":"Feature","id":243,"geometry":{"type":"Point","coordinates":[35.26526342671022,32.086529836256446]},"properties":{"OBJECTID_1":243,"Name":"Yatma","District":"Nablus","Type":"partial checkpoint"}},{"type":"Feature","id":244,"geometry":{"type":"Point","coordinates":[35.345014204672424,32.096656335440358]},"properties":{"OBJECTID_1":244,"Name":"Jurish em","District":"Nablus","Type":"earthmound"}},{"type":"Feature","id":245,"geometry":{"type":"Point","coordinates":[35.346737062454707,32.095312074533147]},"properties":{"OBJECTID_1":245,"Name":"Jurish/Qusra road block 2","District":"Nablus","Type":"road block"}},{"type":"Feature","id":246,"geometry":{"type":"Point","coordinates":[35.34661566225077,32.095601370112284]},"properties":{"OBJECTID_1":246,"Name":"Jurish- Qusra road block","District":"Nablus","Type":"road block"}},{"type":"Feature","id":247,"geometry":{"type":"Point","coordinates":[35.34695626513799,32.094975066924512]},"properties":{"OBJECTID_1":247,"Name":"Qusra-Jurish agricultural lands road block ","District":"Nablus","Type":"road block"}},{"type":"Feature","id":248,"geometry":{"type":"Point","coordinates":[35.35561356153228,32.064915865433782]},"properties":{"OBJECTID_1":248,"Name":"Duma entrance PcP","District":"Nablus","Type":"partial checkpoint"}},{"type":"Feature","id":249,"geometry":{"type":"Point","coordinates":[35.181903350834503,32.28568326450381]},"properties":{"OBJECTID_1":249,"Name":"Burqa PCP","District":"Nablus","Type":"partial checkpoint"}},{"type":"Feature","id":250,"geometry":{"type":"Point","coordinates":[35.11003812012693,31.522566469326012]},"properties":{"OBJECTID_1":250,"Name":"Al Fayha’a School RB","District":"Hebron","Type":"road block"}},{"type":"Feature","id":251,"geometry":{"type":"Point","coordinates":[35.108332920266797,31.523819869685603]},"properties":{"OBJECTID_1":251,"Name":"Bab Al Khan RB","District":"Hebron","Type":"road block"}},{"type":"Feature","id":252,"geometry":{"type":"Point","coordinates":[35.101230510324854,31.526002770198112]},"properties":{"OBJECTID_1":252,"Name":"Abu Shamsiyeh RB ","District":"Hebron","Type":"road block"}},{"type":"Feature","id":253,"geometry":{"type":"Point","coordinates":[35.160460000445859,31.381550000096169]},"properties":{"OBJECTID_1":253,"Name":"Massafer Yatta/Shib al Butum EM","District":"Hebron","Type":"earthmound"}},{"type":"Feature","id":254,"geometry":{"type":"Point","coordinates":[35.130316619914311,31.402060095059536]},"properties":{"OBJECTID_1":254,"Name":"Mantiqat Shib al Butum RB","District":"Hebron","Type":"road block"}},{"type":"Feature","id":255,"geometry":{"type":"Point","coordinates":[35.13017270825479,31.402372494877593]},"properties":{"OBJECTID_1":255,"Name":"Ma’in EM","District":"Hebron","Type":"earthmound"}},{"type":"Feature","id":256,"geometry":{"type":"Point","coordinates":[35.1261354755284,31.400251859580656]},"properties":{"OBJECTID_1":256,"Name":"Ma’in/RD 317 EM 2","District":"Hebron","Type":"earthmound"}},{"type":"Feature","id":257,"geometry":{"type":"Point","coordinates":[35.314756771934086,31.892497199690109]},"properties":{"OBJECTID_1":257,"Name":"Maghayir ad Deir RB","District":"Ramallah","Type":"road block"}},{"type":"Feature","id":258,"geometry":{"type":"Point","coordinates":[35.13615965870369,31.478868966292271]},"properties":{"OBJECTID_1":258,"Name":"Zif/RD 356 EM (2)","District":"Hebron","Type":"earthmound"}},{"type":"Feature","id":259,"geometry":{"type":"Point","coordinates":[35.417166766821225,31.925092566614033]},"properties":{"OBJECTID_1":259,"Name":"Al Mu'arrajat East RB","District":"Jericho","Type":"road block"}},{"type":"Feature","id":260,"geometry":{"type":"Point","coordinates":[35.341703430687069,31.812829965091453]},"properties":{"OBJECTID_1":260,"Name":"Al Khan Al Ahmar road block","District":"Jerusalem","Type":"road block"}},{"type":"Feature","id":261,"geometry":{"type":"Point","coordinates":[35.38935521043571,31.824241792445829]},"properties":{"OBJECTID_1":261,"Name":"Al Hathroura new","District":"Jericho","Type":"road block"}},{"type":"Feature","id":262,"geometry":{"type":"Point","coordinates":[35.407189446266734,31.772922245449049]},"properties":{"OBJECTID_1":262,"Name":"An Nabi Musa new road block","District":"Jericho","Type":"road block"}},{"type":"Feature","id":263,"geometry":{"type":"Point","coordinates":[35.107015000558349,31.523181999983731]},"properties":{"OBJECTID_1":263,"Name":"Vegetables Market RB","District":"Hebron","Type":"road block"}},{"type":"Feature","id":264,"geometry":{"type":"Point","coordinates":[35.10685600067012,31.52446800014981]},"properties":{"OBJECTID_1":264,"Name":"Khozoq Al Far RB","District":"Hebron","Type":"road block"}},{"type":"Feature","id":265,"geometry":{"type":"Point","coordinates":[35.108124000421036,31.524511000517379]},"properties":{"OBJECTID_1":265,"Name":"Al Hammam RB","District":"Hebron","Type":"road block"}},{"type":"Feature","id":266,"geometry":{"type":"Point","coordinates":[35.10892300064112,31.524489999668738]},"properties":{"OBJECTID_1":266,"Name":"Bani Dar RB.2","District":"Hebron","Type":"road block"}},{"type":"Feature","id":267,"geometry":{"type":"Point","coordinates":[35.353559916734902,32.060334083798971]},"properties":{"OBJECTID_1":267,"Name":"Duma West EM 1","District":"Nablus","Type":"earthmound"}},{"type":"Feature","id":268,"geometry":{"type":"Point","coordinates":[35.353526366823218,32.05981733336322]},"properties":{"OBJECTID_1":268,"Name":"Duma West EM 2","District":"Nablus","Type":"earthmound"}},{"type":"Feature","id":269,"geometry":{"type":"Point","coordinates":[35.353492242552299,32.059818234282254]},"properties":{"OBJECTID_1":269,"Name":"Duma West EM 3","District":"Nablus","Type":"earthmound"}},{"type":"Feature","id":270,"geometry":{"type":"Point","coordinates":[35.358240266821433,32.07325186904496]},"properties":{"OBJECTID_1":270,"Name":"Majdal Bani Fadil EM","District":"Nablus","Type":"earthmound"}},{"type":"Feature","id":271,"geometry":{"type":"Point","coordinates":[35.349045283335848,32.029987968911826]},"properties":{"OBJECTID_1":271,"Name":"Al Mughayyir North East EM ","District":"Ramallah","Type":"earthmound"}},{"type":"Feature","id":272,"geometry":{"type":"Point","coordinates":[35.336111767376757,31.949092899944532]},"properties":{"OBJECTID_1":272,"Name":"Kafr Malik South EM","District":"Ramallah","Type":"earthmound"}},{"type":"Feature","id":273,"geometry":{"type":"Point","coordinates":[35.272252220315863,31.893409168600467]},"properties":{"OBJECTID_1":273,"Name":"Burqa South East EM","District":"Ramallah","Type":"earthmound"}},{"type":"Feature","id":274,"geometry":{"type":"Point","coordinates":[35.027030373192133,31.3756289726978]},"properties":{"OBJECTID_1":274,"Name":"Khirbet Ar Ratheem/RD 317 EM","District":"Hebron","Type":"earthmound"}},{"type":"Feature","id":275,"geometry":{"type":"Point","coordinates":[35.021062582270552,31.375276418126543]},"properties":{"OBJECTID_1":275,"Name":"As Samu/RD 317 EM","District":"Hebron","Type":"earthmound"}},{"type":"Feature","id":276,"geometry":{"type":"Point","coordinates":[35.114654253244957,31.524464577521826]},"properties":{"OBJECTID_1":276,"Name":"Wadi Al Nassara PCP.1","District":"Hebron","Type":"partial checkpoint"}},{"type":"Feature","id":277,"geometry":{"type":"Point","coordinates":[35.115394600383603,31.524783700308305]},"properties":{"OBJECTID_1":277,"Name":"Wadi Al Nassara PCP.3","District":"Hebron","Type":"partial checkpoint"}},{"type":"Feature","id":278,"geometry":{"type":"Point","coordinates":[35.114741500205412,31.524764199889674]},"properties":{"OBJECTID_1":278,"Name":"Wadi Al Nassara PCP.2","District":"Hebron","Type":"partial checkpoint"}},{"type":"Feature","id":279,"geometry":{"type":"Point","coordinates":[35.11329999976185,31.526309999305422]},"properties":{"OBJECTID_1":279,"Name":"Road Block Next to Rajabi Building ","District":"Hebron","Type":"road block"}},{"type":"Feature","id":280,"geometry":{"type":"Point","coordinates":[35.139680708986013,31.635601411517246]},"properties":{"OBJECTID_1":280,"Name":"Beit Fajjar PCP","District":"Bethlehem","Type":"partial checkpoint"}},{"type":"Feature","id":281,"geometry":{"type":"Point","coordinates":[35.111400000174562,31.524320000397555]},"properties":{"OBJECTID_1":281,"Name":"Al Saraya KG RB","District":"Hebron","Type":"road block"}},{"type":"Feature","id":282,"geometry":{"type":"Point","coordinates":[35.103509775882259,31.562544369331444]},"properties":{"OBJECTID_1":282,"Name":"Hebron City PCP","District":"Hebron","Type":"partial checkpoint"}},{"type":"Feature","id":283,"geometry":{"type":"Point","coordinates":[35.156513946102052,31.501901652827076]},"properties":{"OBJECTID_1":283,"Name":"Bani Naim PCP","District":"Hebron","Type":"partial checkpoint"}},{"type":"Feature","id":284,"geometry":{"type":"Point","coordinates":[35.168579108811443,31.494464096180302]},"properties":{"OBJECTID_1":284,"Name":"Bani Naim EM (Opposite to Peni Haver)","District":"Hebron","Type":"earthmound"}},{"type":"Feature","id":285,"geometry":{"type":"Point","coordinates":[35.101514277352486,31.945688468423235]},"properties":{"OBJECTID_1":285,"Name":"New closure- Wadi Al lamon agricultural road to 463 ","District":"Ramallah","Type":"earthmound"}},{"type":"Feature","id":286,"geometry":{"type":"Point","coordinates":[35.180486356580786,31.72107987089673]},"properties":{"OBJECTID_1":286,"Name":"Al Krimzan PCP","District":"Bethlehem","Type":"partial checkpoint"}},{"type":"Feature","id":287,"geometry":{"type":"Point","coordinates":[35.187013618662633,32.434469963363249]},"properties":{"OBJECTID_1":287,"Name":"Ya’bad entrance to 585 road","District":"Jenin","Type":"partial checkpoint"}},{"type":"Feature","id":288,"geometry":{"type":"Point","coordinates":[35.157663022329373,32.434248478031229]},"properties":{"OBJECTID_1":288,"Name":"Yabad road 585 mid way","District":"Jenin","Type":"partial checkpoint"}},{"type":"Feature","id":289,"geometry":{"type":"Point","coordinates":[35.148529646162018,32.434087913115434]},"properties":{"OBJECTID_1":289,"Name":"Yabad/Imreiha PcP -midway to road 585","District":"Jenin","Type":"partial checkpoint"}},{"type":"Feature","id":290,"geometry":{"type":"Point","coordinates":[35.141417299918842,32.434802111627413]},"properties":{"OBJECTID_1":290,"Name":"Imreiha agricultural lands","District":"Jenin","Type":"earthmound"}},{"type":"Feature","id":291,"geometry":{"type":"Point","coordinates":[35.213403178810424,32.540267104967633]},"properties":{"OBJECTID_1":291,"Name":"Salem pcp","District":"Jenin","Type":"partial checkpoint"}},{"type":"Feature","id":292,"geometry":{"type":"Point","coordinates":[35.184886939750903,32.288848408754781]},"properties":{"OBJECTID_1":292,"Name":"Burqa earth mound","District":"Nablus","Type":"earthmound"}},{"type":"Feature","id":293,"geometry":{"type":"Point","coordinates":[35.181489085475846,32.28291844504939]},"properties":{"OBJECTID_1":293,"Name":"Masudiya PcP","District":"Nablus","Type":"partial checkpoint"}},{"type":"Feature","id":294,"geometry":{"type":"Point","coordinates":[35.181921945125325,32.283208045023244]},"properties":{"OBJECTID_1":294,"Name":"Masudiya- Sabastiya earth-mound","District":"Nablus","Type":"earthmound"}},{"type":"Feature","id":295,"geometry":{"type":"Point","coordinates":[35.291850144729459,32.119517189572655]},"properties":{"OBJECTID_1":295,"Name":"Beita-Osarin road block at road 505","District":"Nablus","Type":"road block"}},{"type":"Feature","id":296,"geometry":{"type":"Point","coordinates":[35.282888448985702,32.120058817828024]},"properties":{"OBJECTID_1":296,"Name":"Beita observation PCP at road 505","District":"Nablus","Type":"partial checkpoint"}},{"type":"Feature","id":297,"geometry":{"type":"Point","coordinates":[35.282848864164364,32.120625851763926]},"properties":{"OBJECTID_1":297,"Name":"Beita agricultural lands em","District":"Nablus","Type":"earthmound"}},{"type":"Feature","id":298,"geometry":{"type":"Point","coordinates":[35.258036425462315,32.139488648945168]},"properties":{"OBJECTID_1":298,"Name":"Huwwara PcP6 near beita circle","District":"Nablus","Type":"partial checkpoint"}},{"type":"Feature","id":299,"geometry":{"type":"Point","coordinates":[35.258163378152467,32.144476973847098]},"properties":{"OBJECTID_1":299,"Name":"Huwwara main road PcP5","District":"Nablus","Type":"partial checkpoint"}},{"type":"Feature","id":300,"geometry":{"type":"Point","coordinates":[35.258014454841749,32.146627658303906]},"properties":{"OBJECTID_1":300,"Name":"Huwwara main road PcP4","District":"Nablus","Type":"partial checkpoint"}},{"type":"Feature","id":301,"geometry":{"type":"Point","coordinates":[35.257954537396031,32.148599350618966]},"properties":{"OBJECTID_1":301,"Name":"Huwwara main road PcP3","District":"Nablus","Type":"partial checkpoint"}},{"type":"Feature","id":302,"geometry":{"type":"Point","coordinates":[35.258569290700102,32.151403701032493]},"properties":{"OBJECTID_1":302,"Name":"Huwwara main road PcP2","District":"Nablus","Type":"partial checkpoint"}},{"type":"Feature","id":303,"geometry":{"type":"Point","coordinates":[35.25962401715762,32.155738537188853]},"properties":{"OBJECTID_1":303,"Name":"Huwwara main road PcP1","District":"Nablus","Type":"partial checkpoint"}},{"type":"Feature","id":304,"geometry":{"type":"Point","coordinates":[35.255756438665941,31.829473888495109]},"properties":{"OBJECTID_1":304,"Name":"Hizma partial Checkpoint 1","District":"Jerusalem","Type":"partial checkpoint"}},{"type":"Feature","id":305,"geometry":{"type":"Point","coordinates":[35.251722562948679,31.831926169939461]},"properties":{"OBJECTID_1":305,"Name":"Hizma partial Checkpoint 2","District":"Jerusalem","Type":"partial checkpoint"}},{"type":"Feature","id":306,"geometry":{"type":"Point","coordinates":[35.228694491420363,31.925246649660636]},"properties":{"OBJECTID_1":306,"Name":"Beitin-Bet El Partial CP","District":"Ramallah","Type":"partial checkpoint"}},{"type":"Feature","id":307,"geometry":{"type":"Point","coordinates":[35.207792733521494,32.190297566994239]},"properties":{"OBJECTID_1":307,"Name":"Tell-Jit pcp R60","District":"Nablus","Type":"partial checkpoint"}},{"type":"Feature","id":308,"geometry":{"type":"Point","coordinates":[35.27976090625404,32.121206462097909]},"properties":{"OBJECTID_1":308,"Name":"Beita South internal road em","District":"Nablus","Type":"earthmound"}},{"type":"Feature","id":309,"geometry":{"type":"Point","coordinates":[35.282642413645561,32.121288993566928]},"properties":{"OBJECTID_1":309,"Name":"Beita southeast internal road em","District":"Nablus","Type":"earthmound"}},{"type":"Feature","id":310,"geometry":{"type":"Point","coordinates":[35.284374933503393,32.123752995409646]},"properties":{"OBJECTID_1":310,"Name":"Beita southeast em2","District":"Nablus","Type":"earthmound"}},{"type":"Feature","id":311,"geometry":{"type":"Point","coordinates":[35.147201999037023,31.708235999666634]},"properties":{"OBJECTID_1":311,"Name":"Husan PCP 2","District":"Bethlehem","Type":"partial checkpoint"}},{"type":"Feature","id":312,"geometry":{"type":"Point","coordinates":[35.256423117750749,31.853595859666459]},"properties":{"OBJECTID_1":312,"Name":"New roadblock near Jaba' CP ","District":"Jerusalem","Type":"road block"}},{"type":"Feature","id":313,"geometry":{"type":"Point","coordinates":[35.448671999927519,32.247158999746084]},"properties":{"OBJECTID_1":313,"Name":"Khirbet Atuf Road 458","District":"Tubas","Type":"road block"}},{"type":"Feature","id":314,"geometry":{"type":"Point","coordinates":[35.07382124066752,31.668581683072407]},"properties":{"OBJECTID_1":314,"Name":"Surif-Al Jab'a EM","District":"Bethlehem","Type":"earthmound"}},{"type":"Feature","id":315,"geometry":{"type":"Point","coordinates":[34.961248060336374,31.497118959456483]},"properties":{"OBJECTID_1":315,"Name":"Beit Awwa/Tawas PCP","District":"Hebron","Type":"partial checkpoint"}},{"type":"Feature","id":316,"geometry":{"type":"Point","coordinates":[35.12745545363358,31.577772281293761]},"properties":{"OBJECTID_1":316,"Name":"Sa'ir/Road 60 PCP","District":"Hebron","Type":"partial checkpoint"}},{"type":"Feature","id":317,"geometry":{"type":"Point","coordinates":[35.132848255083637,31.87203003573282]},"properties":{"OBJECTID_1":317,"Name":"At Tira RB","District":"Ramallah","Type":"road block"}},{"type":"Feature","id":318,"geometry":{"type":"Point","coordinates":[35.078151273279346,32.012623097118933]},"properties":{"OBJECTID_1":318,"Name":"Abud Entrance PCP","District":"Ramallah","Type":"partial checkpoint"}},{"type":"Feature","id":319,"geometry":{"type":"Point","coordinates":[35.108262298057376,32.007180268844323]},"properties":{"OBJECTID_1":319,"Name":"Deir Nidham PCP","District":"Ramallah","Type":"partial checkpoint"}},{"type":"Feature","id":320,"geometry":{"type":"Point","coordinates":[35.03100021901588,31.944323907929196]},"properties":{"OBJECTID_1":320,"Name":"Ni'lin Entrance PCP","District":"Ramallah","Type":"partial checkpoint"}},{"type":"Feature","id":321,"geometry":{"type":"Point","coordinates":[35.128710420884538,32.013676445966098]},"properties":{"OBJECTID_1":321,"Name":"An Nabi Saleh PCP","District":"Ramallah","Type":"partial checkpoint"}},{"type":"Feature","id":322,"geometry":{"type":"Point","coordinates":[35.22800000046135,31.9889546998503]},"properties":{"OBJECTID_1":322,"Name":"Ein Siniya","District":"Ramallah","Type":"partial checkpoint"}},{"type":"Feature","id":323,"geometry":{"type":"Point","coordinates":[35.259999999655804,31.95996999976121]},"properties":{"OBJECTID_1":323,"Name":"Ein Yabrud - Silwad","District":"Ramallah","Type":"partial checkpoint"}},{"type":"Feature","id":324,"geometry":{"type":"Point","coordinates":[35.397000000379066,32.18822899958932]},"properties":{"OBJECTID_1":324,"Name":null,"District":"Nablus","Type":"earthmound"}},{"type":"Feature","id":325,"geometry":{"type":"Point","coordinates":[35.401000000439105,32.185297999681502]},"properties":{"OBJECTID_1":325,"Name":null,"District":"Nablus","Type":"earthmound"}}]
}