{
  "type" : "FeatureCollection",
  "features" : [{"type":"Feature","id":1,"geometry":{"type":"Point","coordinates":[35.230570930262168,32.189050814387073]},"properties":{"OBJECTID_1":1,"Name":"Tell Madama road gate above the tunnel on the road leads to road 60 ","Status":"open","District":"Nablus"}},{"type":"Feature","id":2,"geometry":{"type":"Point","coordinates":[35.162778000578307,32.102777999952345]},"properties":{"OBJECTID_1":2,"Name":"Salfit Ariel gate","Status":"open","District":"Salfit"}},{"type":"Feature","id":3,"geometry":{"type":"Point","coordinates":[35.08195178330044,31.887325700154772]},"properties":{"OBJECTID_1":3,"Name":"Kharbatha Al Misbah","Status":"closed","District":"Ramallah"}},{"type":"Feature","id":4,"geometry":{"type":"Point","coordinates":[35.065281432369972,32.28061137367191]},"properties":{"OBJECTID_1":4,"Name":"Tulkarm/Izbat Shufa entrance from Shufa CP","Status":"open","District":"Tulkarm"}},{"type":"Feature","id":5,"geometry":{"type":"Point","coordinates":[35.2298260431158,31.903619187866628]},"properties":{"OBJECTID_1":5,"Name":"Al Bireh - Psagot Road Gate 2","Status":"closed","District":"Ramallah"}},{"type":"Feature","id":6,"geometry":{"type":"Point","coordinates":[35.3895247894135,31.825635602410678]},"properties":{"OBJECTID_1":6,"Name":"Deir al Qilt Road Gate","Status":"open","District":"Jericho"}},{"type":"Feature","id":7,"geometry":{"type":"Point","coordinates":[35.032367828955294,31.941609024205068]},"properties":{"OBJECTID_1":7,"Name":"Ni'lin Workers Road Gate","Status":"closed","District":"Ramallah"}},{"type":"Feature","id":8,"geometry":{"type":"Point","coordinates":[35.152702001036673,32.434639442196001]},"properties":{"OBJECTID_1":8,"Name":"585 Ya'bad west entrance","Status":"closed","District":"Jenin"}},{"type":"Feature","id":9,"geometry":{"type":"Point","coordinates":[35.119606999866207,32.427402000084001]},"properties":{"OBJECTID_1":9,"Name":"585 Qaffin Hermesh","Status":"open","District":"Tulkarm"}},{"type":"Feature","id":10,"geometry":{"type":"Point","coordinates":[35.203716919925043,32.122320801509645]},"properties":{"OBJECTID_1":10,"Name":"505 Jamma'in Marda","Status":"open","District":"Nablus"}},{"type":"Feature","id":11,"geometry":{"type":"Point","coordinates":[35.201708798219151,32.121277308352603]},"properties":{"OBJECTID_1":11,"Name":"505 Marda Jamma'in 2","Status":"open","District":"Nablus"}},{"type":"Feature","id":12,"geometry":{"type":"Point","coordinates":[35.182605855451072,32.11242846481975]},"properties":{"OBJECTID_1":12,"Name":"505 Marda 2","Status":"open","District":"Salfit"}},{"type":"Feature","id":13,"geometry":{"type":"Point","coordinates":[35.163944999619041,32.110088999758162]},"properties":{"OBJECTID_1":13,"Name":"505 Kifl Haris entrance ","Status":"open","District":"Salfit"}},{"type":"Feature","id":14,"geometry":{"type":"Point","coordinates":[35.070879606169768,32.176513159696484]},"properties":{"OBJECTID_1":14,"Name":"Azzun old main road","Status":"closed","District":"Qalqiliya"}},{"type":"Feature","id":15,"geometry":{"type":"Point","coordinates":[35.116762016810888,32.445252668530991]},"properties":{"OBJECTID_1":15,"Name":"Khirbet Masud","Status":"closed","District":"Jenin"}},{"type":"Feature","id":16,"geometry":{"type":"Point","coordinates":[35.162387999977049,32.217544999847654]},"properties":{"OBJECTID_1":16,"Name":"Kafr Qaddum/ Qedumim east entrance","Status":"closed","District":"Qalqiliya"}},{"type":"Feature","id":17,"geometry":{"type":"Point","coordinates":[35.412932999573044,32.146478000271308]},"properties":{"OBJECTID_1":17,"Name":"Khirbet Tana Southeast Gate","Status":"open","District":"Jericho"}},{"type":"Feature","id":18,"geometry":{"type":"Point","coordinates":[35.115770196984009,32.276155936457592]},"properties":{"OBJECTID_1":18,"Name":"Khirbet Samra - 557","Status":"open","District":"Tulkarm"}},{"type":"Feature","id":19,"geometry":{"type":"Point","coordinates":[35.189804027661204,32.264116898018976]},"properties":{"OBJECTID_1":19,"Name":"Al Naqura - Shave Shomron road gate","Status":"open","District":"Nablus"}},{"type":"Feature","id":20,"geometry":{"type":"Point","coordinates":[35.15801500027839,32.220991000184689]},"properties":{"OBJECTID_1":20,"Name":"Kafr Qaddum historical entrance/Kedumim","Status":"closed","District":"Qalqiliya"}},{"type":"Feature","id":21,"geometry":{"type":"Point","coordinates":[35.056706999893883,32.183211999543026]},"properties":{"OBJECTID_1":21,"Name":"55 main entrance of  'Azzun","Status":"open","District":"Qalqiliya"}},{"type":"Feature","id":22,"geometry":{"type":"Point","coordinates":[35.054915999924354,32.18287200010618]},"properties":{"OBJECTID_1":22,"Name":"Azzun under the tunnel ","Status":"open","District":"Qalqiliya"}},{"type":"Feature","id":23,"geometry":{"type":"Point","coordinates":[35.093650767740797,32.176824707972564]},"properties":{"OBJECTID_1":23,"Name":"Kafr Laqif entrance","Status":"open","District":"Qalqiliya"}},{"type":"Feature","id":24,"geometry":{"type":"Point","coordinates":[35.133653798064053,32.113013984922823]},"properties":{"OBJECTID_1":24,"Name":"Haris Gate - West","Status":"open","District":"Salfit"}},{"type":"Feature","id":25,"geometry":{"type":"Point","coordinates":[35.282866000003501,32.172693999387995]},"properties":{"OBJECTID_1":25,"Name":"Awarta DCO","Status":"closed","District":"Nablus"}},{"type":"Feature","id":26,"geometry":{"type":"Point","coordinates":[35.266407999860149,32.205230000135842]},"properties":{"OBJECTID_1":26,"Name":"At Tur","Status":"open","District":"Nablus"}},{"type":"Feature","id":27,"geometry":{"type":"Point","coordinates":[35.242009954336808,32.117143660381998]},"properties":{"OBJECTID_1":27,"Name":"Yasuf East","Status":"closed","District":"Salfit"}},{"type":"Feature","id":28,"geometry":{"type":"Point","coordinates":[35.257940794243794,31.798030588763428]},"properties":{"OBJECTID_1":28,"Name":"Ras Shihadeh Barrier Road Gate","Status":"closed","District":"Jerusalem"}},{"type":"Feature","id":29,"geometry":{"type":"Point","coordinates":[35.470407000103414,32.252236000111353]},"properties":{"OBJECTID_1":29,"Name":"Khirbet ar Ras al Ahmar Road 458 Gate","Status":"open","District":"Tubas"}},{"type":"Feature","id":30,"geometry":{"type":"Point","coordinates":[35.135780366110239,31.974409784770703]},"properties":{"OBJECTID_1":30,"Name":"Nehaliel Road 450 Road Gate","Status":"closed","District":"Ramallah"}},{"type":"Feature","id":31,"geometry":{"type":"Point","coordinates":[35.220358999851868,31.933617999764998]},"properties":{"OBJECTID_1":31,"Name":"Beit El West Road Gate","Status":"open","District":"Ramallah"}},{"type":"Feature","id":32,"geometry":{"type":"Point","coordinates":[35.389365000452429,31.819541000196772]},"properties":{"OBJECTID_1":32,"Name":"Ein al Qilt Road Gate","Status":"open","District":"Jericho"}},{"type":"Feature","id":33,"geometry":{"type":"Point","coordinates":[35.214042324566584,32.099502479554886]},"properties":{"OBJECTID_1":33,"Name":"East Ariel","Status":"open","District":"Salfit"}},{"type":"Feature","id":34,"geometry":{"type":"Point","coordinates":[35.117482557518954,31.954555716239419]},"properties":{"OBJECTID_1":34,"Name":"Zayit Raanan Rd 450 Gate","Status":"closed","District":"Ramallah"}},{"type":"Feature","id":35,"geometry":{"type":"Point","coordinates":[35.129142833501128,31.938005591441645]},"properties":{"OBJECTID_1":35,"Name":"Talmon Road 450 Road Gate","Status":"closed","District":"Ramallah"}},{"type":"Feature","id":36,"geometry":{"type":"Point","coordinates":[35.261917144660877,31.798880575481419]},"properties":{"OBJECTID_1":36,"Name":"Isawiya East Road Gate","Status":"closed","District":"Jerusalem"}},{"type":"Feature","id":37,"geometry":{"type":"Point","coordinates":[35.170417056928351,31.83164220917913]},"properties":{"OBJECTID_1":37,"Name":"Biddu-An Nabi Samuel Road Gate 1","Status":"closed","District":"Jerusalem"}},{"type":"Feature","id":38,"geometry":{"type":"Point","coordinates":[35.171803000345456,31.842318999809518]},"properties":{"OBJECTID_1":38,"Name":"Nabi Samuel","Status":"closed","District":"Jerusalem"}},{"type":"Feature","id":39,"geometry":{"type":"Point","coordinates":[35.142753006508769,31.925937179237643]},"properties":{"OBJECTID_1":39,"Name":"Ein Qinya-Dolev East Gate","Status":"closed","District":"Ramallah"}},{"type":"Feature","id":40,"geometry":{"type":"Point","coordinates":[35.165268268399899,31.831262813454384]},"properties":{"OBJECTID_1":40,"Name":"Biddu-An Nabi Samuel Road Gate 2","Status":"open","District":"Jerusalem"}},{"type":"Feature","id":41,"geometry":{"type":"Point","coordinates":[35.27723700026683,31.78907599997715]},"properties":{"OBJECTID_1":41,"Name":"Za'ayyem Gate","Status":"open","District":"Jerusalem"}},{"type":"Feature","id":42,"geometry":{"type":"Point","coordinates":[35.187461845581822,31.826310765102026]},"properties":{"OBJECTID_1":42,"Name":"Beit Iksa to Road 436 (1)","Status":"closed","District":"Jerusalem"}},{"type":"Feature","id":43,"geometry":{"type":"Point","coordinates":[35.128524578270884,32.014620463633236]},"properties":{"OBJECTID_1":43,"Name":"An Nabi Saleh Road Gate","Status":"closed","District":"Ramallah"}},{"type":"Feature","id":44,"geometry":{"type":"Point","coordinates":[35.255433240632215,31.957355373063248]},"properties":{"OBJECTID_1":44,"Name":"Ein Yabrud Road 60 Gate","Status":"closed","District":"Ramallah"}},{"type":"Feature","id":45,"geometry":{"type":"Point","coordinates":[35.106006000371522,31.501709999807588]},"properties":{"OBJECTID_1":45,"Name":"Hebron/DCL RG","Status":"closed","District":"Hebron"}},{"type":"Feature","id":46,"geometry":{"type":"Point","coordinates":[35.155944835706883,31.647107812807278]},"properties":{"OBJECTID_1":46,"Name":"Umm Salamuna Road Gate","Status":"open","District":"Hebron"}},{"type":"Feature","id":47,"geometry":{"type":"Point","coordinates":[35.184396589193554,31.825949491283296]},"properties":{"OBJECTID_1":47,"Name":"Beit Iksa RG","Status":"closed","District":"Jerusalem"}},{"type":"Feature","id":48,"geometry":{"type":"Point","coordinates":[35.039407729935455,32.038240662147828]},"properties":{"OBJECTID_1":48,"Name":"Al Lubban al Gharbi-465","Status":"open","District":"Ramallah"}},{"type":"Feature","id":49,"geometry":{"type":"Point","coordinates":[35.262052396921717,31.783082302720619]},"properties":{"OBJECTID_1":49,"Name":"Az Za'ayem Road Barrier ","Status":"closed","District":"Jerusalem"}},{"type":"Feature","id":50,"geometry":{"type":"Point","coordinates":[35.256532147600367,31.719145275974931]},"properties":{"OBJECTID_1":50,"Name":"Sur Bahir Barrier Gate 2 ","Status":"closed","District":"Jerusalem"}},{"type":"Feature","id":51,"geometry":{"type":"Point","coordinates":[35.248656865241372,31.732671305302059]},"properties":{"OBJECTID_1":51,"Name":"Sur Bahir Barrier Gate 1","Status":"closed","District":"Jerusalem"}},{"type":"Feature","id":52,"geometry":{"type":"Point","coordinates":[35.03266738787471,32.183078052787039]},"properties":{"OBJECTID_1":52,"Name":"Izbat at tabib main entrance","Status":"open","District":"Qalqiliya"}},{"type":"Feature","id":53,"geometry":{"type":"Point","coordinates":[35.386154332522068,32.101374522464951]},"properties":{"OBJECTID_1":53,"Name":"Tell al khadhaba dirt road east","Status":"open","District":"Nablus"}},{"type":"Feature","id":54,"geometry":{"type":"Point","coordinates":[35.257745376124127,31.853072215024635]},"properties":{"OBJECTID_1":54,"Name":"Dhahiyat al aqbat road gate","Status":"open","District":"Jerusalem"}},{"type":"Feature","id":55,"geometry":{"type":"Point","coordinates":[35.05591324113086,31.893720396379269]},"properties":{"OBJECTID_1":55,"Name":"Beit Sira Rd Gate","Status":"closed","District":"Ramallah"}},{"type":"Feature","id":56,"geometry":{"type":"Point","coordinates":[35.107452068767678,31.675553229359263]},"properties":{"OBJECTID_1":56,"Name":"Nahhalin Southern PCP","Status":"open","District":"Bethlehem"}},{"type":"Feature","id":57,"geometry":{"type":"Point","coordinates":[35.118308141877819,31.546826180337618]},"properties":{"OBJECTID_1":57,"Name":"Al Bowereh Road Gate ","Status":"closed","District":"Hebron"}},{"type":"Feature","id":58,"geometry":{"type":"Point","coordinates":[35.103801816657516,32.089122955597652]},"properties":{"OBJECTID_1":58,"Name":"Bruqin - Northeast entrance","Status":"open","District":"Salfit"}},{"type":"Feature","id":59,"geometry":{"type":"Point","coordinates":[35.064391046768975,32.066290858627625]},"properties":{"OBJECTID_1":59,"Name":"Kafr ad Dik Western Entrance","Status":"open","District":"Salfit"}},{"type":"Feature","id":60,"geometry":{"type":"Point","coordinates":[35.117701128619373,31.564170204774527]},"properties":{"OBJECTID_1":60,"Name":"Ad Dahyea RG","Status":"closed","District":"Hebron"}},{"type":"Feature","id":61,"geometry":{"type":"Point","coordinates":[35.100111202443358,31.563502868808033]},"properties":{"OBJECTID_1":61,"Name":"Halhul Bridge RG","Status":"open","District":"Hebron"}},{"type":"Feature","id":62,"geometry":{"type":"Point","coordinates":[35.042478576463992,31.555947016237827]},"properties":{"OBJECTID_1":62,"Name":"Taffuh/Road 35 RG","Status":"open","District":"Hebron"}},{"type":"Feature","id":63,"geometry":{"type":"Point","coordinates":[35.006080478640392,31.560088518355688]},"properties":{"OBJECTID_1":63,"Name":"35 Road/Suba","Status":"closed","District":"Hebron"}},{"type":"Feature","id":64,"geometry":{"type":"Point","coordinates":[35.336517999306345,32.198917460558974]},"properties":{"OBJECTID_1":64,"Name":"Beit Furik north","Status":"closed","District":"Nablus"}},{"type":"Feature","id":65,"geometry":{"type":"Point","coordinates":[34.952840544749208,31.378037516330444]},"properties":{"OBJECTID_1":65,"Name":"Adh Dhahiriya South Road Gate","Status":"closed","District":"Hebron"}},{"type":"Feature","id":66,"geometry":{"type":"Point","coordinates":[35.166605757698868,31.736634253139332]},"properties":{"OBJECTID_1":66,"Name":"Al Walaja-Krimzan RG","Status":"closed","District":"Bethlehem"}},{"type":"Feature","id":67,"geometry":{"type":"Point","coordinates":[35.272472044174691,32.027164720456256]},"properties":{"OBJECTID_1":67,"Name":"Sinjil Main Entrance Rd Gate ","Status":"open","District":"Ramallah"}},{"type":"Feature","id":68,"geometry":{"type":"Point","coordinates":[35.155079196332231,31.499213924025341]},"properties":{"OBJECTID_1":68,"Name":"Bani Na’im Entrance (Yaqeen) PCP","Status":"open","District":"Hebron"}},{"type":"Feature","id":69,"geometry":{"type":"Point","coordinates":[35.116661985207429,31.927614204522939]},"properties":{"OBJECTID_1":69,"Name":"Deir Ibzi Road gate","Status":"open","District":"Ramallah"}},{"type":"Feature","id":70,"geometry":{"type":"Point","coordinates":[35.084751779258816,32.011126619561431]},"properties":{"OBJECTID_1":70,"Name":"Deir Abu Mash'al Gate ","Status":"open","District":"Ramallah"}},{"type":"Feature","id":71,"geometry":{"type":"Point","coordinates":[35.258073480020698,31.870376681292395]},"properties":{"OBJECTID_1":71,"Name":"Jaba Rd 60 Rd Gate","Status":"closed","District":"Jerusalem"}},{"type":"Feature","id":72,"geometry":{"type":"Point","coordinates":[35.272912271738925,31.82123404872728]},"properties":{"OBJECTID_1":72,"Name":"Anata FoL Rd block","Status":"open","District":"Jerusalem"}},{"type":"Feature","id":73,"geometry":{"type":"Point","coordinates":[35.411027021583244,32.131565989032786]},"properties":{"OBJECTID_1":73,"Name":"Lifjim Rd Gate","Status":"open","District":"Jericho"}},{"type":"Feature","id":74,"geometry":{"type":"Point","coordinates":[35.229284895974224,31.8450242172709]},"properties":{"OBJECTID_1":74,"Name":"Dahiyat Al Barid ","Status":"closed","District":"Jerusalem"}},{"type":"Feature","id":75,"geometry":{"type":"Point","coordinates":[35.343582757988621,32.211860635189439]},"properties":{"OBJECTID_1":75,"Name":"Salim to alon moreh road ","Status":"closed","District":"Nablus"}},{"type":"Feature","id":76,"geometry":{"type":"Point","coordinates":[35.167489210064929,32.434652829746838]},"properties":{"OBJECTID_1":76,"Name":"Yabad south","Status":"closed","District":"Jenin"}},{"type":"Feature","id":77,"geometry":{"type":"Point","coordinates":[35.100604472400541,31.673078471620279]},"properties":{"OBJECTID_1":77,"Name":"Al Jaba'a RG/Road 307","Status":"closed","District":"Bethlehem"}},{"type":"Feature","id":78,"geometry":{"type":"Point","coordinates":[35.103476700134216,32.267530462971386]},"properties":{"OBJECTID_1":78,"Name":"Saffarin entrance from road 557","Status":"open","District":"Tulkarm"}},{"type":"Feature","id":79,"geometry":{"type":"Point","coordinates":[35.090160705180125,32.27018258069706]},"properties":{"OBJECTID_1":79,"Name":"Shufa south east entrance at road 557","Status":"open","District":"Tulkarm"}},{"type":"Feature","id":80,"geometry":{"type":"Point","coordinates":[35.255057550725795,31.761664212700534]},"properties":{"OBJECTID_1":80,"Name":"Qunbar Gate","Status":"open","District":"Jerusalem"}},{"type":"Feature","id":81,"geometry":{"type":"Point","coordinates":[35.255100047131563,31.761678423523115]},"properties":{"OBJECTID_1":81,"Name":"Surkhi Gate ","Status":"closed","District":"Jerusalem"}},{"type":"Feature","id":82,"geometry":{"type":"Point","coordinates":[35.16040586324786,31.838860690350952]},"properties":{"OBJECTID_1":82,"Name":"Biddu Road Gate ","Status":"open","District":"Jerusalem"}},{"type":"Feature","id":83,"geometry":{"type":"Point","coordinates":[35.213697530711336,32.539474994359573]},"properties":{"OBJECTID_1":83,"Name":"Salem DCL gate","Status":"open","District":"Jenin"}},{"type":"Feature","id":84,"geometry":{"type":"Point","coordinates":[35.019533364246456,32.187348003056258]},"properties":{"OBJECTID_1":84,"Name":"An nabi elyas- Jayyus land","Status":"open","District":"Qalqiliya"}},{"type":"Feature","id":85,"geometry":{"type":"Point","coordinates":[35.020690402279953,31.489041134786824]},"properties":{"OBJECTID_1":85,"Name":"Khursa RG ","Status":"open","District":"Hebron"}},{"type":"Feature","id":86,"geometry":{"type":"Point","coordinates":[35.282675587718991,32.179528111601947]},"properties":{"OBJECTID_1":86,"Name":"'Awarta commercial","Status":"closed","District":"Nablus"}},{"type":"Feature","id":87,"geometry":{"type":"Point","coordinates":[35.223369620742751,31.904772985271396]},"properties":{"OBJECTID_1":87,"Name":"Al Bireh - Psagot Road Gate","Status":"open","District":"Ramallah"}},{"type":"Feature","id":88,"geometry":{"type":"Point","coordinates":[35.253932207613069,31.943121921953217]},"properties":{"OBJECTID_1":88,"Name":"Ein Yabrud Road 60 RB","Status":"closed","District":"Ramallah"}},{"type":"Feature","id":89,"geometry":{"type":"Point","coordinates":[35.247102328310532,31.774344065645629]},"properties":{"OBJECTID_1":89,"Name":"Ras Al Amoud - At Tur Gate ","Status":"closed","District":"Jerusalem"}},{"type":"Feature","id":90,"geometry":{"type":"Point","coordinates":[35.10680000011827,31.670842999765448]},"properties":{"OBJECTID_1":90,"Name":"Nahhalin/Road 307","Status":"closed","District":"Bethlehem"}},{"type":"Feature","id":91,"geometry":{"type":"Point","coordinates":[35.147123090058713,32.014455001437931]},"properties":{"OBJECTID_1":91,"Name":"Umm Safa Road Gate","Status":"closed","District":"Ramallah"}},{"type":"Feature","id":92,"geometry":{"type":"Point","coordinates":[35.489286901934214,32.244160878560102]},"properties":{"OBJECTID_1":92,"Name":"Hadidiya _newgate","Status":"closed","District":"Tubas"}},{"type":"Feature","id":93,"geometry":{"type":"Point","coordinates":[35.552721160353691,32.257870814444082]},"properties":{"OBJECTID_1":93,"Name":"Road90_parrallal_rehal_hemdat_settlement","Status":"open","District":"Tubas"}},{"type":"Feature","id":94,"geometry":{"type":"Point","coordinates":[35.117418557446392,32.445907617938111]},"properties":{"OBJECTID_1":94,"Name":"Qaffin- Qaiqes (585 road)","Status":"closed","District":"Jenin"}},{"type":"Feature","id":95,"geometry":{"type":"Point","coordinates":[35.168028501717046,32.007268890670893]},"properties":{"OBJECTID_1":95,"Name":"Umm Safa road 465","Status":"open","District":"Ramallah"}},{"type":"Feature","id":96,"geometry":{"type":"Point","coordinates":[35.105751799582535,32.006251201625794]},"properties":{"OBJECTID_1":96,"Name":"Deir Ndham east entrance ","Status":"open","District":"Ramallah"}},{"type":"Feature","id":97,"geometry":{"type":"Point","coordinates":[35.043329587750023,32.004343774462477]},"properties":{"OBJECTID_1":97,"Name":"Shuqba gate before the tunnel ","Status":"open","District":"Ramallah"}},{"type":"Feature","id":98,"geometry":{"type":"Point","coordinates":[35.038092406440612,32.0215507313454]},"properties":{"OBJECTID_1":98,"Name":"Shoqba north to road 446","Status":"open","District":"Ramallah"}},{"type":"Feature","id":99,"geometry":{"type":"Point","coordinates":[35.132800033064953,31.918520210071367]},"properties":{"OBJECTID_1":99,"Name":"Deir Ibzi agricultural gate","Status":"open","District":"Ramallah"}},{"type":"Feature","id":100,"geometry":{"type":"Point","coordinates":[35.116252396088598,31.928181653254082]},"properties":{"OBJECTID_1":100,"Name":"Deir Ibzi main agricultural Road gate ","Status":"open","District":"Ramallah"}},{"type":"Feature","id":101,"geometry":{"type":"Point","coordinates":[35.101162036835142,31.94158775285349]},"properties":{"OBJECTID_1":101,"Name":"Ras Karkar Kafr Nimeh road gate","Status":"open","District":"Ramallah"}},{"type":"Feature","id":102,"geometry":{"type":"Point","coordinates":[35.101406118083382,31.942515168497032]},"properties":{"OBJECTID_1":102,"Name":"Ras Karkar main road gate","Status":"open","District":"Ramallah"}},{"type":"Feature","id":103,"geometry":{"type":"Point","coordinates":[35.093358317298673,31.947569624015333]},"properties":{"OBJECTID_1":103,"Name":"Kharbatha Bani Hareth road gate","Status":"open","District":"Ramallah"}},{"type":"Feature","id":104,"geometry":{"type":"Point","coordinates":[35.217209737531334,31.939923777226078]},"properties":{"OBJECTID_1":104,"Name":"Beit El road gate","Status":"open","District":"Ramallah"}},{"type":"Feature","id":105,"geometry":{"type":"Point","coordinates":[35.220531737909234,31.933988970880065]},"properties":{"OBJECTID_1":105,"Name":"Road gate Beit El 2","Status":"open","District":"Ramallah"}},{"type":"Feature","id":106,"geometry":{"type":"Point","coordinates":[35.164112328895385,32.213696466537122]},"properties":{"OBJECTID_1":106,"Name":"Kafr Qaddum agri lands","Status":"closed","District":"Qalqiliya"}},{"type":"Feature","id":107,"geometry":{"type":"Point","coordinates":[35.175282881414283,32.192809302207614]},"properties":{"OBJECTID_1":107,"Name":"Far’ata East","Status":"closed","District":"Qalqiliya"}},{"type":"Feature","id":108,"geometry":{"type":"Point","coordinates":[35.256694178301281,31.85407734469262]},"properties":{"OBJECTID_1":108,"Name":"Jaba south road gate ","Status":"open","District":"Jerusalem"}},{"type":"Feature","id":109,"geometry":{"type":"Point","coordinates":[35.262751790888771,31.827424772517627]},"properties":{"OBJECTID_1":109,"Name":"Hizma south ","Status":"open","District":"Jerusalem"}},{"type":"Feature","id":110,"geometry":{"type":"Point","coordinates":[35.275168344419832,31.820622687157734]},"properties":{"OBJECTID_1":110,"Name":"Anata NE road gate ","Status":"open","District":"Jerusalem"}},{"type":"Feature","id":111,"geometry":{"type":"Point","coordinates":[35.338562177817337,31.809196891442781]},"properties":{"OBJECTID_1":111,"Name":"Khan Al Ahmar parking road gate","Status":"open","District":"Jerusalem"}},{"type":"Feature","id":112,"geometry":{"type":"Point","coordinates":[35.339471948760995,31.809708061306491]},"properties":{"OBJECTID_1":112,"Name":"Kan Al Ahmar Road Gate","Status":"open","District":"Jerusalem"}},{"type":"Feature","id":113,"geometry":{"type":"Point","coordinates":[35.348779164826922,31.815806247405565]},"properties":{"OBJECTID_1":113,"Name":"Khan Al Ahmar East Road Gate","Status":"closed","District":"Jerusalem"}},{"type":"Feature","id":114,"geometry":{"type":"Point","coordinates":[35.091916463206459,31.67416707111807]},"properties":{"OBJECTID_1":114,"Name":"Al Jaba/Road 367 RG ","Status":"closed","District":"Bethlehem"}},{"type":"Feature","id":115,"geometry":{"type":"Point","coordinates":[35.077455080958643,31.494123707715094]},"properties":{"OBJECTID_1":115,"Name":"Near Haggayi RG ","Status":"closed","District":"Hebron"}},{"type":"Feature","id":116,"geometry":{"type":"Point","coordinates":[35.219126636268385,31.652604111126855]},"properties":{"OBJECTID_1":116,"Name":"Khirbet ad Deir RG","Status":"open","District":"Bethlehem"}},{"type":"Feature","id":117,"geometry":{"type":"Point","coordinates":[35.040009042120481,32.064380884047715]},"properties":{"OBJECTID_1":117,"Name":"Deir Ballut - Rafat gate","Status":"open","District":"Salfit"}},{"type":"Feature","id":118,"geometry":{"type":"Point","coordinates":[35.24777672742178,32.192814503275706]},"properties":{"OBJECTID_1":118,"Name":"Burin- Brakha","Status":"closed","District":"Nablus"}},{"type":"Feature","id":119,"geometry":{"type":"Point","coordinates":[35.112780527853872,32.093838528400518]},"properties":{"OBJECTID_1":119,"Name":"Bruqin - Road 4765","Status":"open","District":"Salfit"}},{"type":"Feature","id":120,"geometry":{"type":"Point","coordinates":[35.129293212522384,32.130023077915936]},"properties":{"OBJECTID_1":120,"Name":"Deir Istiya - Agri lands","Status":"open","District":"Salfit"}},{"type":"Feature","id":121,"geometry":{"type":"Point","coordinates":[35.144018875432415,31.51657484423664]},"properties":{"OBJECTID_1":121,"Name":"Bani Naim Entrance Gate (Wadi Al Jouz) ","Status":"open","District":"Hebron"}},{"type":"Feature","id":122,"geometry":{"type":"Point","coordinates":[35.142548437878595,31.515454351951867]},"properties":{"OBJECTID_1":122,"Name":"Bani Na'im Gate (Sannot area)","Status":"closed","District":"Hebron"}},{"type":"Feature","id":123,"geometry":{"type":"Point","coordinates":[35.117896777288998,31.525191693069718]},"properties":{"OBJECTID_1":123,"Name":"Dana’s Family Neighborhood ","Status":"closed","District":"Hebron"}},{"type":"Feature","id":124,"geometry":{"type":"Point","coordinates":[35.054173171077657,31.562545393009007]},"properties":{"OBJECTID_1":124,"Name":"Farsh al Hawa/35 RG","Status":"open","District":"Hebron"}},{"type":"Feature","id":125,"geometry":{"type":"Point","coordinates":[35.038985665860146,31.556208128720741]},"properties":{"OBJECTID_1":125,"Name":"At Taybbe Stone Quarries RG","Status":"open","District":"Hebron"}},{"type":"Feature","id":126,"geometry":{"type":"Point","coordinates":[35.120543930042821,31.585895865874534]},"properties":{"OBJECTID_1":126,"Name":"Al Jomjomeh mountain RG","Status":"closed","District":"Hebron"}},{"type":"Feature","id":127,"geometry":{"type":"Point","coordinates":[35.105987246646897,31.60191439591809]},"properties":{"OBJECTID_1":127,"Name":"Halhul near Karme Tzu RG","Status":"open","District":"Hebron"}},{"type":"Feature","id":128,"geometry":{"type":"Point","coordinates":[35.160504222252285,31.663149060964972]},"properties":{"OBJECTID_1":128,"Name":"Near Um Salamuna Gate","Status":"closed","District":"Bethlehem"}},{"type":"Feature","id":129,"geometry":{"type":"Point","coordinates":[35.108910016900339,31.678591375054687]},"properties":{"OBJECTID_1":129,"Name":"Nahhalin (Ein Fares)/RG 1","Status":"closed","District":"Bethlehem"}},{"type":"Feature","id":130,"geometry":{"type":"Point","coordinates":[35.10990821817051,31.677551180921878]},"properties":{"OBJECTID_1":130,"Name":"Nahhalin/RG 2","Status":"open","District":"Bethlehem"}},{"type":"Feature","id":131,"geometry":{"type":"Point","coordinates":[35.13646024265357,31.674385043207327]},"properties":{"OBJECTID_1":131,"Name":"Nahhalin K17 RG","Status":"closed","District":"Bethlehem"}},{"type":"Feature","id":132,"geometry":{"type":"Point","coordinates":[35.100415040932234,31.5237133770305]},"properties":{"OBJECTID_1":132,"Name":"Tal Rumeida Archeological Site RG.1","Status":"open","District":"Hebron"}},{"type":"Feature","id":133,"geometry":{"type":"Point","coordinates":[35.097957027159289,31.524330929307808]},"properties":{"OBJECTID_1":133,"Name":"Qafisha Building RG","Status":"open","District":"Hebron"}},{"type":"Feature","id":134,"geometry":{"type":"Point","coordinates":[35.130967059244554,32.284326329912531]},"properties":{"OBJECTID_1":134,"Name":"North Beit Lid","Status":"closed","District":"Tulkarm"}},{"type":"Feature","id":135,"geometry":{"type":"Point","coordinates":[35.113091851765979,31.534372859565604]},"properties":{"OBJECTID_1":135,"Name":"Wadi Al Ghrous RG","Status":"open","District":"Hebron"}},{"type":"Feature","id":136,"geometry":{"type":"Point","coordinates":[35.151213999317356,31.737594000269947]},"properties":{"OBJECTID_1":136,"Name":"Walaja RG","Status":"closed","District":"Bethlehem"}},{"type":"Feature","id":137,"geometry":{"type":"Point","coordinates":[35.109189510784191,31.522364442277908]},"properties":{"OBJECTID_1":137,"Name":"Qitoun RG","Status":"closed","District":"Hebron"}},{"type":"Feature","id":138,"geometry":{"type":"Point","coordinates":[35.100801056083029,31.524478118035169]},"properties":{"OBJECTID_1":138,"Name":"Tal Rumeida Archeogical Site RG.2","Status":"closed","District":"Hebron"}},{"type":"Feature","id":139,"geometry":{"type":"Point","coordinates":[35.251626278448171,31.939935164411096]},"properties":{"OBJECTID_1":139,"Name":"Ein Yabroud Road 60 South RG","Status":"closed","District":"Ramallah"}},{"type":"Feature","id":140,"geometry":{"type":"Point","coordinates":[35.122400272852012,31.999948161692853]},"properties":{"OBJECTID_1":140,"Name":"Dier Nidgham south ","Status":"open","District":"Ramallah"}},{"type":"Feature","id":141,"geometry":{"type":"Point","coordinates":[35.347203500369105,32.094197635423399]},"properties":{"OBJECTID_1":141,"Name":"Migdalim settlement gate","Status":"closed","District":"Nablus"}},{"type":"Feature","id":142,"geometry":{"type":"Point","coordinates":[35.099940000641375,31.524569143116601]},"properties":{"OBJECTID_1":142,"Name":"Jabal Al Rahmeh RG","Status":"closed","District":"Hebron"}},{"type":"Feature","id":143,"geometry":{"type":"Point","coordinates":[35.110139999763668,31.524240000053325]},"properties":{"OBJECTID_1":143,"Name":"Mosque garden entrance RG","Status":"closed","District":"Hebron"}},{"type":"Feature","id":144,"geometry":{"type":"Point","coordinates":[35.111360000655623,31.522950000450134]},"properties":{"OBJECTID_1":144,"Name":"Al Salaymeh Neighborhood RG.","Status":"open","District":"Hebron"}},{"type":"Feature","id":145,"geometry":{"type":"Point","coordinates":[35.107349999549079,31.523109999835093]},"properties":{"OBJECTID_1":145,"Name":"Cemetery Entrance RG","Status":"closed","District":"Hebron"}},{"type":"Feature","id":146,"geometry":{"type":"Point","coordinates":[35.337823916903744,31.815164079615059]},"properties":{"OBJECTID_1":146,"Name":"Al Khan Al Ahmar new gate","Status":"closed","District":"Jerusalem"}},{"type":"Feature","id":147,"geometry":{"type":"Point","coordinates":[35.331140671000995,31.818814996649586]},"properties":{"OBJECTID_1":147,"Name":"Khan Al Ahmar new gate 2","Status":"closed","District":"Jerusalem"}},{"type":"Feature","id":148,"geometry":{"type":"Point","coordinates":[35.23864980064333,31.917869589185461]},"properties":{"OBJECTID_1":148,"Name":"Road gate Psagot","Status":"open","District":"Ramallah"}},{"type":"Feature","id":149,"geometry":{"type":"Point","coordinates":[35.226400051505479,31.901478404307763]},"properties":{"OBJECTID_1":149,"Name":"Psagot Road gate","Status":"open","District":"Ramallah"}},{"type":"Feature","id":150,"geometry":{"type":"Point","coordinates":[35.251658850870818,31.7661177936298]},"properties":{"OBJECTID_1":150,"Name":"Ras ‘Al Amoud Road gate ","Status":"open","District":"Jerusalem"}},{"type":"Feature","id":151,"geometry":{"type":"Point","coordinates":[35.168415181116245,31.493133036540581]},"properties":{"OBJECTID_1":151,"Name":"Bani Na'im RG (Opposite to Peni Haver)","Status":"closed","District":"Hebron"}},{"type":"Feature","id":152,"geometry":{"type":"Point","coordinates":[35.296660301812459,31.750303756450414]},"properties":{"OBJECTID_1":152,"Name":"Kedar Wadi Al Nar Road Gate","Status":"closed","District":"Jerusalem"}},{"type":"Feature","id":153,"geometry":{"type":"Point","coordinates":[35.152698681033044,31.943749567377608]},"properties":{"OBJECTID_1":153,"Name":"Al Mazra'a Al Gharbiya road gate","Status":"closed","District":"Ramallah"}},{"type":"Feature","id":154,"geometry":{"type":"Point","coordinates":[35.126640000080798,31.547340000190847]},"properties":{"OBJECTID_1":154,"Name":"Al Bowereh RG","Status":"closed","District":"Hebron"}},{"type":"Feature","id":155,"geometry":{"type":"Point","coordinates":[35.153123399733389,32.00457709940158]},"properties":{"OBJECTID_1":155,"Name":"East Jibiya RG","Status":"closed","District":"Ramallah"}},{"type":"Feature","id":156,"geometry":{"type":"Point","coordinates":[35.167150000729734,31.733770000242263]},"properties":{"OBJECTID_1":156,"Name":"Krimzan RG","Status":"closed","District":"Bethlehem"}},{"type":"Feature","id":157,"geometry":{"type":"Point","coordinates":[35.246999718681636,31.714509122192762]},"properties":{"OBJECTID_1":157,"Name":"Khallet An Numan RG","Status":"closed","District":"Bethlehem"}},{"type":"Feature","id":158,"geometry":{"type":"Point","coordinates":[35.116309999659485,31.363900000041667]},"properties":{"OBJECTID_1":158,"Name":"A Sefeer RG (1)","Status":"closed","District":"Hebron"}},{"type":"Feature","id":159,"geometry":{"type":"Point","coordinates":[35.114939999503008,31.365959999657626]},"properties":{"OBJECTID_1":159,"Name":"A Sefeer RG (3)","Status":"closed","District":"Hebron"}},{"type":"Feature","id":160,"geometry":{"type":"Point","coordinates":[35.125392709413354,31.937416640506836]},"properties":{"OBJECTID_1":160,"Name":"Al Janiya Roadgate","Status":"closed","District":"Ramallah"}},{"type":"Feature","id":161,"geometry":{"type":"Point","coordinates":[35.248052282837442,31.913610527979596]},"properties":{"OBJECTID_1":161,"Name":"Beitin South RG","Status":"closed","District":"Ramallah"}},{"type":"Feature","id":162,"geometry":{"type":"Point","coordinates":[35.111377773833659,31.524134324536671]},"properties":{"OBJECTID_1":162,"Name":"As Salaymeh Neighbourhood near Saraya KG","Status":"open","District":"Hebron"}},{"type":"Feature","id":163,"geometry":{"type":"Point","coordinates":[35.088741556496913,31.944394958169774]},"properties":{"OBJECTID_1":163,"Name":"Jabal Al-Reesan Roadgate","Status":"open","District":"Ramallah"}},{"type":"Feature","id":164,"geometry":{"type":"Point","coordinates":[35.547999999753777,32.373606099606555]},"properties":{"OBJECTID_1":164,"Name":"Ad Deir roadgate","Status":"closed","District":"Tubas"}},{"type":"Feature","id":165,"geometry":{"type":"Point","coordinates":[35.100999999610366,32.084104999574393]},"properties":{"OBJECTID_1":165,"Name":null,"Status":"closed","District":"Salfit"}}]
}